stop_id,stop_code,stop_name,stop_lat,stop_lon,stop_url
103,103,Victoria (Plaza de la Merced),36.723415,-4.416463,http://www.emtmalaga.es/emt-mobile/informacionParada.html?codParada=103
104,104,Compás de la Victoria,36.727403,-4.413547,http://www.emtmalaga.es/emt-mobile/informacionParada.html?codParada=104
105,105,Fernando el Católico,36.729034,-4.413708,http://www.emtmalaga.es/emt-mobile/informacionParada.html?codParada=105
106,106,Cristo de la Epidemia,36.731038,-4.415068,http://www.emtmalaga.es/emt-mobile/informacionParada.html?codParada=106
107,107,Plaza de Fuente Olletas,36.732988,-4.416382,http://www.emtmalaga.es/emt-mobile/informacionParada.html?codParada=107
109,109,Alameda de Barceló (San Miguel),36.732001,-4.418102,http://www.emtmalaga.es/emt-mobile/informacionParada.html?codParada=109
110,110,Alameda de Barceló (Monserrat),36.73131,-4.420457,http://www.emtmalaga.es/emt-mobile/informacionParada.html?codParada=110
111,111,San Juan Bosco (Segalerva),36.732554,-4.421749,http://www.emtmalaga.es/emt-mobile/informacionParada.html?codParada=111
112,112,San Juan Bosco (Albeniz),36.734287,-4.422284,http://www.emtmalaga.es/emt-mobile/informacionParada.html?codParada=112
113,113,San Juan Bosco (Guerrero Strachan),36.737025,-4.42257,http://www.emtmalaga.es/emt-mobile/informacionParada.html?codParada=113
114,114,Avda. de las Postas (Ntra. Sra. de las Guias),36.737719,-4.421033,http://www.emtmalaga.es/emt-mobile/informacionParada.html?codParada=114
115,115,Avda. de las Postas (Sinaí),36.738258,-4.419951,http://www.emtmalaga.es/emt-mobile/informacionParada.html?codParada=115
116,116,Paseo del Parque (Plaza de la Marina),36.718538,-4.419026,http://www.emtmalaga.es/emt-mobile/informacionParada.html?codParada=116
117,117,Paseo del Parque (Ayuntamiento),36.719504,-4.415573,http://www.emtmalaga.es/emt-mobile/informacionParada.html?codParada=117
119,119,Alameda Principal (Norte),36.717867,-4.422057,http://www.emtmalaga.es/emt-mobile/informacionParada.html?codParada=119
151,151,Plaza de Nazaret (Parque del Sur),36.73832,-4.421442,http://www.emtmalaga.es/emt-mobile/informacionParada.html?codParada=151
152,152,Avda. de las Postas (Lorenza Correa),36.737803,-4.422073,http://www.emtmalaga.es/emt-mobile/informacionParada.html?codParada=152
153,153,Emilio Díaz,36.735732,-4.423585,http://www.emtmalaga.es/emt-mobile/informacionParada.html?codParada=153
154,154,San Juan Bosco (Albeniz),36.734029,-4.422321,http://www.emtmalaga.es/emt-mobile/informacionParada.html?codParada=154
155,155,San Juan Bosco (Segalerva),36.732383,-4.421849,http://www.emtmalaga.es/emt-mobile/informacionParada.html?codParada=155
156,156,Plaza de Capuchinos,36.729561,-4.42048,http://www.emtmalaga.es/emt-mobile/informacionParada.html?codParada=156
157,157,Alameda de Capuchinos (El Ejido),36.730549,-4.419164,http://www.emtmalaga.es/emt-mobile/informacionParada.html?codParada=157
158,158,Alameda de Capuchinos,36.732024,-4.417219,http://www.emtmalaga.es/emt-mobile/informacionParada.html?codParada=158
159,159,Cristo de la Epidemia (Fuente Olletas),36.732515,-4.415561,http://www.emtmalaga.es/emt-mobile/informacionParada.html?codParada=159
160,160,Cristo de la Epidemia (Tejeros),36.729292,-4.414755,http://www.emtmalaga.es/emt-mobile/informacionParada.html?codParada=160
161,161,Plaza de la Victoria,36.72701,-4.414015,http://www.emtmalaga.es/emt-mobile/informacionParada.html?codParada=161
163,163,Paseo del Parque (Ayuntamiento),36.720092,-4.414306,http://www.emtmalaga.es/emt-mobile/informacionParada.html?codParada=163
164,164,Paseo del Parque,36.719527,-4.416269,http://www.emtmalaga.es/emt-mobile/informacionParada.html?codParada=164
165,165,Alcazabilla,36.722251,-4.416316,http://www.emtmalaga.es/emt-mobile/informacionParada.html?codParada=165
171,171,Alameda Principal (Sur),36.717877,-4.42142,http://www.emtmalaga.es/emt-mobile/informacionParada.html?codParada=171
202,202,Pasillo de Santa Isabel,36.720182,-4.425022,http://www.emtmalaga.es/emt-mobile/informacionParada.html?codParada=202
205,205,Huerto de los Claveles,36.727066,-4.425604,http://www.emtmalaga.es/emt-mobile/informacionParada.html?codParada=205
206,206,Jorge Silvela (Cruz Roja),36.732082,-4.425032,http://www.emtmalaga.es/emt-mobile/informacionParada.html?codParada=206
207,207,Avda. Jorge Silvela (Fernando Loring),36.735397,-4.424752,http://www.emtmalaga.es/emt-mobile/informacionParada.html?codParada=207
208,208,Avda. Ramón y Cajal (Cristo Rey),36.738299,-4.424101,http://www.emtmalaga.es/emt-mobile/informacionParada.html?codParada=208
209,209,Avda. Ramón Y Cajal (Bda. del Carmen),36.741044,-4.423245,http://www.emtmalaga.es/emt-mobile/informacionParada.html?codParada=209
210,210,Avda. Ramón y Cajal (Bda. Sgda. Familia),36.743243,-4.422925,http://www.emtmalaga.es/emt-mobile/informacionParada.html?codParada=210
211,211,Avda. Ramón y Cajal (Mercado),36.745786,-4.422551,http://www.emtmalaga.es/emt-mobile/informacionParada.html?codParada=211
212,212,Avda. Jacinto Benavente,36.748969,-4.423543,http://www.emtmalaga.es/emt-mobile/informacionParada.html?codParada=212
214,214,Arroyo del Sastre (Limonero),36.75363,-4.425924,http://www.emtmalaga.es/emt-mobile/informacionParada.html?codParada=214
228,228,Emilio Thuiller (Mercado),36.746678,-4.421854,http://www.emtmalaga.es/emt-mobile/informacionParada.html?codParada=228
229,229,Atarazanas,36.717881,-4.424571,http://www.emtmalaga.es/emt-mobile/informacionParada.html?codParada=229
230,230,Puente de la Aurora,36.7223,-4.425257,http://www.emtmalaga.es/emt-mobile/informacionParada.html?codParada=230
251,251,San José,36.755424,-4.425576,http://www.emtmalaga.es/emt-mobile/informacionParada.html?codParada=251
252,252,Camino de Casabermeja,36.75296,-4.424183,http://www.emtmalaga.es/emt-mobile/informacionParada.html?codParada=252
253,253,Avda. de la Aurora (Correos),36.715858,-4.42704,http://www.emtmalaga.es/emt-mobile/informacionParada.html?codParada=253
254,254,Avda. Ramón y Cajal (Mercado),36.745803,-4.422738,http://www.emtmalaga.es/emt-mobile/informacionParada.html?codParada=254
255,255,Avda. Ramón y Cajal (Bda. Sgda. Familia),36.74333,-4.423113,http://www.emtmalaga.es/emt-mobile/informacionParada.html?codParada=255
256,256,Avda. Ramón y Cajal (Bda. Del Carmen),36.740932,-4.423476,http://www.emtmalaga.es/emt-mobile/informacionParada.html?codParada=256
257,257,Avda. Ramón y Cajal (Cristo Rey),36.738687,-4.424136,http://www.emtmalaga.es/emt-mobile/informacionParada.html?codParada=257
258,258,Avda. Jorge Silvela,36.735161,-4.425061,http://www.emtmalaga.es/emt-mobile/informacionParada.html?codParada=258
259,259,Paseo de Martiricos,36.729572,-4.427085,http://www.emtmalaga.es/emt-mobile/informacionParada.html?codParada=259
263,263,Avda. Jacinto Benavente,36.748891,-4.423778,http://www.emtmalaga.es/emt-mobile/informacionParada.html?codParada=263
264,264,Cmno. Casabermeja (Polideportivo),36.750864,-4.422962,http://www.emtmalaga.es/emt-mobile/informacionParada.html?codParada=264
265,265,Don Juan de Austria,36.726348,-4.428811,http://www.emtmalaga.es/emt-mobile/informacionParada.html?codParada=265
266,266,Jaboneros,36.722374,-4.429083,http://www.emtmalaga.es/emt-mobile/informacionParada.html?codParada=266
301,301,Paseo del Parque (Plaza del General Torrijos),36.72041,-4.413303,http://www.emtmalaga.es/emt-mobile/informacionParada.html?codParada=301
302,302,Paseo del Parque,36.719475,-4.416468,http://www.emtmalaga.es/emt-mobile/informacionParada.html?codParada=302
303,303,Paseo del Parque (Plaza Marina),36.718738,-4.419112,http://www.emtmalaga.es/emt-mobile/informacionParada.html?codParada=303
306,306,Cuarteles (Perchel),36.715259,-4.426784,http://www.emtmalaga.es/emt-mobile/informacionParada.html?codParada=306
307,307,Cuarteles (Eslava),36.712782,-4.429303,http://www.emtmalaga.es/emt-mobile/informacionParada.html?codParada=307
308,308,Héroe de Sostoa (Estación),36.711134,-4.431483,http://www.emtmalaga.es/emt-mobile/informacionParada.html?codParada=308
309,309,Héroe de Sostoa (La Isla),36.708742,-4.434483,http://www.emtmalaga.es/emt-mobile/informacionParada.html?codParada=309
310,310,Héroe de Sostoa (Jardín de la Abadía),36.706651,-4.437131,http://www.emtmalaga.es/emt-mobile/informacionParada.html?codParada=310
312,312,Héroe de Sostoa (Obras Públicas),36.704844,-4.439438,http://www.emtmalaga.es/emt-mobile/informacionParada.html?codParada=312
313,313,Héroe de Sostoa (Bda. Girón),36.702294,-4.442713,http://www.emtmalaga.es/emt-mobile/informacionParada.html?codParada=313
314,314,Avda. de Velázquez (Bda. El Torcal),36.700244,-4.445392,http://www.emtmalaga.es/emt-mobile/informacionParada.html?codParada=314
315,315,Avda. de Velázquez (Vistafranca),36.697485,-4.448929,http://www.emtmalaga.es/emt-mobile/informacionParada.html?codParada=315
316,316,Avda. de Velázquez (Bda. La Luz),36.696001,-4.45078,http://www.emtmalaga.es/emt-mobile/informacionParada.html?codParada=316
317,317,Avda. de Velázquez (Bda. Belén),36.69366,-4.453795,http://www.emtmalaga.es/emt-mobile/informacionParada.html?codParada=317
318,318,Avda. de los Guindos,36.692971,-4.453556,http://www.emtmalaga.es/emt-mobile/informacionParada.html?codParada=318
319,319,Camino del Pato,36.691281,-4.450364,http://www.emtmalaga.es/emt-mobile/informacionParada.html?codParada=319
320,320,Avda. Gregorio Diego,36.690103,-4.451798,http://www.emtmalaga.es/emt-mobile/informacionParada.html?codParada=320
322,322,Alameda Principal (Sur),36.717797,-4.421705,http://www.emtmalaga.es/emt-mobile/informacionParada.html?codParada=322
351,351,Puerta Blanca (Gregorio Diego),36.691049,-4.453239,http://www.emtmalaga.es/emt-mobile/informacionParada.html?codParada=351
352,352,Avda. de Gregorio Diego,36.69185,-4.45487,http://www.emtmalaga.es/emt-mobile/informacionParada.html?codParada=352
353,353,Avda. de Velázquez (Los Guindos),36.694047,-4.452882,http://www.emtmalaga.es/emt-mobile/informacionParada.html?codParada=353
354,354,Avda. de Velázquez (Bda. La Paz),36.695989,-4.450407,http://www.emtmalaga.es/emt-mobile/informacionParada.html?codParada=354
355,355,Avda. de Velázquez (Vistafranca),36.69807,-4.447759,http://www.emtmalaga.es/emt-mobile/informacionParada.html?codParada=355
356,356,Avda. de Velázquez (El Torcal),36.700157,-4.445117,http://www.emtmalaga.es/emt-mobile/informacionParada.html?codParada=356
357,357,Avda. de la Paloma (Bda. Girón),36.700939,-4.442686,http://www.emtmalaga.es/emt-mobile/informacionParada.html?codParada=357
360,360,Ayala (Jardín de la Abadía),36.705757,-4.436114,http://www.emtmalaga.es/emt-mobile/informacionParada.html?codParada=360
361,361,Ayala (Iglesia),36.708116,-4.43346,http://www.emtmalaga.es/emt-mobile/informacionParada.html?codParada=361
362,362,Ayala (Los Arcos),36.709716,-4.431534,http://www.emtmalaga.es/emt-mobile/informacionParada.html?codParada=362
364,364,Salitre (Pasillo del Matadero),36.714191,-4.426588,http://www.emtmalaga.es/emt-mobile/informacionParada.html?codParada=364
366,366,Paseo del Parque (Plaza de la Marina),36.718607,-4.418791,http://www.emtmalaga.es/emt-mobile/informacionParada.html?codParada=366
367,367,Paseo del Parque,36.719366,-4.416063,http://www.emtmalaga.es/emt-mobile/informacionParada.html?codParada=367
368,368,Salitre (Jacinto Verdaguer),36.711807,-4.428982,http://www.emtmalaga.es/emt-mobile/informacionParada.html?codParada=368
370,370,Alameda Principal (Norte),36.717793,-4.422324,http://www.emtmalaga.es/emt-mobile/informacionParada.html?codParada=370
401,401,Paseo del Parque (Plaza del General Torrijos),36.720121,-4.41332,http://www.emtmalaga.es/emt-mobile/informacionParada.html?codParada=401
402,402,Plaza de Toros Vieja,36.712418,-4.4273,http://www.emtmalaga.es/emt-mobile/informacionParada.html?codParada=402
403,403,Av. Explanada de la Estación (Estacion FFCC),36.712531,-4.430785,http://www.emtmalaga.es/emt-mobile/informacionParada.html?codParada=403
406,406,Paseo de los Tilos (Calatrava),36.713028,-4.437789,http://www.emtmalaga.es/emt-mobile/informacionParada.html?codParada=406
407,407,Paseo de los Tilos (Cruz de Humilladero),36.712172,-4.4401,http://www.emtmalaga.es/emt-mobile/informacionParada.html?codParada=407
408,408,Av. Ortega y Gasset (Cruz de Humilladero),36.712117,-4.442166,http://www.emtmalaga.es/emt-mobile/informacionParada.html?codParada=408
409,409,Avda. Ortega y Gasset (Santa Julia),36.711582,-4.44504,http://www.emtmalaga.es/emt-mobile/informacionParada.html?codParada=409
410,410,Avda. Ortega y Gasset (Bda. El Carmen),36.711032,-4.448095,http://www.emtmalaga.es/emt-mobile/informacionParada.html?codParada=410
411,411,Corregidor Antonio de Bobadilla (Instituto),36.712449,-4.449292,http://www.emtmalaga.es/emt-mobile/informacionParada.html?codParada=411
412,412,Corregidor Francisco de Molina (Corazones),36.713048,-4.451274,http://www.emtmalaga.es/emt-mobile/informacionParada.html?codParada=412
414,414,Avda. Ortega y Gasset (Tiro de Pichón),36.710063,-4.453221,http://www.emtmalaga.es/emt-mobile/informacionParada.html?codParada=414
415,415,Avda. Ortega y Gasset (Santa Cristina),36.709404,-4.456147,http://www.emtmalaga.es/emt-mobile/informacionParada.html?codParada=415
416,416,Avda. de Andalucía,36.716645,-4.428965,http://www.emtmalaga.es/emt-mobile/informacionParada.html?codParada=416
417,417,Callejones del Perchel (Mercado),36.714982,-4.430447,http://www.emtmalaga.es/emt-mobile/informacionParada.html?codParada=417
418,418,Max Estrella (Palacio de Ferias),36.708509,-4.46193,http://www.emtmalaga.es/emt-mobile/informacionParada.html?codParada=418
419,419,Mefistofeles (Cortijo Alto),36.710397,-4.462775,http://www.emtmalaga.es/emt-mobile/informacionParada.html?codParada=419
420,420,Gregorio Prieto (Ciudad de la Justicia),36.71352,-4.462763,http://www.emtmalaga.es/emt-mobile/informacionParada.html?codParada=420
421,421,Louis Pasteur (Manuel Dominguez),36.717912,-4.464869,http://www.emtmalaga.es/emt-mobile/informacionParada.html?codParada=421
423,423,Av Gregorio Prieto (Pasteur),36.717634,-4.46397,http://www.emtmalaga.es/emt-mobile/informacionParada.html?codParada=423
425,425,Alameda Principal (Norte),36.717542,-4.423234,http://www.emtmalaga.es/emt-mobile/informacionParada.html?codParada=425
452,452,Avda. Ortega y Gasset (Tiro de Pichón),36.710059,-4.45228,http://www.emtmalaga.es/emt-mobile/informacionParada.html?codParada=452
453,453,Avda. Ortega y Gasset (La Rosa),36.710348,-4.450786,http://www.emtmalaga.es/emt-mobile/informacionParada.html?codParada=453
454,454,Avda. Ortega y Gasset,36.710766,-4.448463,http://www.emtmalaga.es/emt-mobile/informacionParada.html?codParada=454
455,455,Avda. Ortega y Gasset (Bda. El Carmen),36.710973,-4.447045,http://www.emtmalaga.es/emt-mobile/informacionParada.html?codParada=455
456,456,Avda. Ortega y Gasset (Santa Julia),36.711508,-4.444248,http://www.emtmalaga.es/emt-mobile/informacionParada.html?codParada=456
457,457,Cruz de Humilladero,36.711742,-4.440938,http://www.emtmalaga.es/emt-mobile/informacionParada.html?codParada=457
458,458,La Unión (Sta Marta),36.710877,-4.439538,http://www.emtmalaga.es/emt-mobile/informacionParada.html?codParada=458
460,460,La Unión (Edisson),36.711968,-4.436162,http://www.emtmalaga.es/emt-mobile/informacionParada.html?codParada=460
462,462,Avda. Antonio Machado (Nuevo Puente del Carmen),36.71179,-4.425247,http://www.emtmalaga.es/emt-mobile/informacionParada.html?codParada=462
463,463,Avda. Ortega y Gasset (Palacio de Ferias),36.707368,-4.460363,http://www.emtmalaga.es/emt-mobile/informacionParada.html?codParada=463
464,464,Avda. Ortega y Gasset (Sta. Cristina),36.70954,-4.454615,http://www.emtmalaga.es/emt-mobile/informacionParada.html?codParada=464
466,466,Corregidor Francisco de Molina (Corazones),36.713056,-4.450405,http://www.emtmalaga.es/emt-mobile/informacionParada.html?codParada=466
468,468,Paseo de los Tilos (Plaza de la Solidaridad),36.713329,-4.433936,http://www.emtmalaga.es/emt-mobile/informacionParada.html?codParada=468
469,469,Callejones del Perchel (Mercado),36.715269,-4.429766,http://www.emtmalaga.es/emt-mobile/informacionParada.html?codParada=469
470,470,Alameda Principal (Sur),36.717481,-4.422859,http://www.emtmalaga.es/emt-mobile/informacionParada.html?codParada=470
472,472,Louis Pasteur (Manuel Dominguez),36.71777,-4.464553,http://www.emtmalaga.es/emt-mobile/informacionParada.html?codParada=472
473,473,Gregorio Prieto (Ciudad de la Justicia),36.713667,-4.463148,http://www.emtmalaga.es/emt-mobile/informacionParada.html?codParada=473
474,474,Mefistofeles (Cortijo Alto),36.709895,-4.463113,http://www.emtmalaga.es/emt-mobile/informacionParada.html?codParada=474
475,475,Max Estrella (Cortijo Alto),36.70843,-4.462015,http://www.emtmalaga.es/emt-mobile/informacionParada.html?codParada=475
476,476,Gregorio Prieto (Franz Kafka),36.716038,-4.46363,http://www.emtmalaga.es/emt-mobile/informacionParada.html?codParada=476
477,477,Avda. Ortega y Gasset (La Rosa),36.71053,-4.451025,http://www.emtmalaga.es/emt-mobile/informacionParada.html?codParada=477
501,501,Av. Explanada de la Estación (Estación FFCC),36.712162,-4.431095,http://www.emtmalaga.es/emt-mobile/informacionParada.html?codParada=501
502,502,Plaza de Arriola,36.718581,-4.424636,http://www.emtmalaga.es/emt-mobile/informacionParada.html?codParada=502
503,503,Carretería (Plaza Nueva),36.721657,-4.424955,http://www.emtmalaga.es/emt-mobile/informacionParada.html?codParada=503
505,505,Carretería (Álamos),36.724089,-4.421551,http://www.emtmalaga.es/emt-mobile/informacionParada.html?codParada=505
506,506,Álamos,36.723534,-4.419179,http://www.emtmalaga.es/emt-mobile/informacionParada.html?codParada=506
509,509,Ferrándiz,36.726934,-4.413565,http://www.emtmalaga.es/emt-mobile/informacionParada.html?codParada=509
511,511,Dr. Ortiz Ramos,36.716201,-4.490533,http://www.emtmalaga.es/emt-mobile/informacionParada.html?codParada=511
556,556,Avda. Arroyo de los Ángeles (Guardia Civil),36.72796,-4.429209,http://www.emtmalaga.es/emt-mobile/informacionParada.html?codParada=556
557,557,Avda. de Barcelona (Hospital Civil),36.725734,-4.430997,http://www.emtmalaga.es/emt-mobile/informacionParada.html?codParada=557
558,558,Plaza de Bailén,36.724372,-4.43181,http://www.emtmalaga.es/emt-mobile/informacionParada.html?codParada=558
559,559,Alonso de Palencia,36.720614,-4.43279,http://www.emtmalaga.es/emt-mobile/informacionParada.html?codParada=559
560,560,Hilera,36.718386,-4.430907,http://www.emtmalaga.es/emt-mobile/informacionParada.html?codParada=560
562,562,Dr. Ortiz Ramos,36.716079,-4.490418,http://www.emtmalaga.es/emt-mobile/informacionParada.html?codParada=562
564,564,Avda. Plutarco (Parmenides),36.721361,-4.479225,http://www.emtmalaga.es/emt-mobile/informacionParada.html?codParada=564
602,602,Mármoles,36.721582,-4.430145,http://www.emtmalaga.es/emt-mobile/informacionParada.html?codParada=602
603,603,Avda. de Barcelona,36.722339,-4.431662,http://www.emtmalaga.es/emt-mobile/informacionParada.html?codParada=603
604,604,Plaza de Bailén,36.724464,-4.431401,http://www.emtmalaga.es/emt-mobile/informacionParada.html?codParada=604
605,605,Camino de Suárez (Blas de Lezo),36.727072,-4.435464,http://www.emtmalaga.es/emt-mobile/informacionParada.html?codParada=605
606,606,Camino de Suárez (C/ Alonso Hernández),36.72758,-4.438526,http://www.emtmalaga.es/emt-mobile/informacionParada.html?codParada=606
607,607,Camino de Suárez (C/ Venegas),36.728046,-4.440311,http://www.emtmalaga.es/emt-mobile/informacionParada.html?codParada=607
608,608,Camino de Suárez (Rotonda),36.729029,-4.443043,http://www.emtmalaga.es/emt-mobile/informacionParada.html?codParada=608
609,609,Miguel Hernández (Alcalde Jose Luis Estrada),36.731253,-4.44587,http://www.emtmalaga.es/emt-mobile/informacionParada.html?codParada=609
610,610,Miguel Hernández (Luis Rosales),36.732894,-4.446328,http://www.emtmalaga.es/emt-mobile/informacionParada.html?codParada=610
611,611,Camino de la Corta (VPO),36.73444,-4.446878,http://www.emtmalaga.es/emt-mobile/informacionParada.html?codParada=611
612,612,Camino de la Corta (La Milagrosa),36.735617,-4.448932,http://www.emtmalaga.es/emt-mobile/informacionParada.html?codParada=612
613,613,Camino de la Corta (Plaza),36.736326,-4.451013,http://www.emtmalaga.es/emt-mobile/informacionParada.html?codParada=613
621,621,Armengual de la Mota,36.719105,-4.42922,http://www.emtmalaga.es/emt-mobile/informacionParada.html?codParada=621
623,623,Hilera (Armengual de la Mota),36.717963,-4.428277,http://www.emtmalaga.es/emt-mobile/informacionParada.html?codParada=623
624,624,Camino de la Corta (Capitán Eliseo),36.735931,-4.450301,http://www.emtmalaga.es/emt-mobile/informacionParada.html?codParada=624
625,625,Camino San Alberto (Tormes),36.736051,-4.45281,http://www.emtmalaga.es/emt-mobile/informacionParada.html?codParada=625
626,626,Camino  San Alberto,36.734978,-4.452082,http://www.emtmalaga.es/emt-mobile/informacionParada.html?codParada=626
627,627,Camino  San Alberto (Riotinto),36.733706,-4.451245,http://www.emtmalaga.es/emt-mobile/informacionParada.html?codParada=627
628,628,Camino Suárez (Rotonda),36.728965,-4.442838,http://www.emtmalaga.es/emt-mobile/informacionParada.html?codParada=628
629,629,Alcalde José Luis Estrada,36.730206,-4.445362,http://www.emtmalaga.es/emt-mobile/informacionParada.html?codParada=629
657,657,Martínez de la Rosa (Albacete),36.728085,-4.443788,http://www.emtmalaga.es/emt-mobile/informacionParada.html?codParada=657
659,659,Martínez de la Rosa,36.726968,-4.4403,http://www.emtmalaga.es/emt-mobile/informacionParada.html?codParada=659
660,660,Martínez de la Rosa (Berrocal),36.726119,-4.436535,http://www.emtmalaga.es/emt-mobile/informacionParada.html?codParada=660
661,661,Martínez de la Rosa (Séneca),36.725827,-4.434847,http://www.emtmalaga.es/emt-mobile/informacionParada.html?codParada=661
662,662,Avda. de Andalucía,36.7164,-4.428264,http://www.emtmalaga.es/emt-mobile/informacionParada.html?codParada=662
663,663,Galeno,36.729397,-4.445652,http://www.emtmalaga.es/emt-mobile/informacionParada.html?codParada=663
702,702,Avda. Dr. Gálvez Ginachero (Hospital Civil),36.726873,-4.429679,http://www.emtmalaga.es/emt-mobile/informacionParada.html?codParada=702
703,703,Avda. Arroyo de los Ángeles (Hospital Materno),36.728864,-4.4317,http://www.emtmalaga.es/emt-mobile/informacionParada.html?codParada=703
704,704,Avda. Arroyo de los Ángeles (Blas de Lezo),36.730092,-4.434446,http://www.emtmalaga.es/emt-mobile/informacionParada.html?codParada=704
705,705,Av. Arroyo de los Ángeles (Parque Victoria Eugenia),36.731637,-4.436567,http://www.emtmalaga.es/emt-mobile/informacionParada.html?codParada=705
706,706,Ntra. Sra. De los Clarines (Gibraljaire),36.731399,-4.437879,http://www.emtmalaga.es/emt-mobile/informacionParada.html?codParada=706
707,707,Ntra. Sra. Clarines (Pza. Monseñor Bocanegra),36.730421,-4.439107,http://www.emtmalaga.es/emt-mobile/informacionParada.html?codParada=707
709,709,Camino de Suárez (Cabas Galván),36.728335,-4.441146,http://www.emtmalaga.es/emt-mobile/informacionParada.html?codParada=709
710,710,Alcalde José Luis Estrada,36.730794,-4.447963,http://www.emtmalaga.es/emt-mobile/informacionParada.html?codParada=710
711,711,Camino de San Alberto (Carlinda),36.731056,-4.44963,http://www.emtmalaga.es/emt-mobile/informacionParada.html?codParada=711
713,713,Diego de Baena,36.732606,-4.452194,http://www.emtmalaga.es/emt-mobile/informacionParada.html?codParada=713
714,714,Platero (San Alberto),36.733808,-4.452873,http://www.emtmalaga.es/emt-mobile/informacionParada.html?codParada=714
715,715,Tambre,36.732895,-4.451491,http://www.emtmalaga.es/emt-mobile/informacionParada.html?codParada=715
718,718,Alameda Principal (Norte),36.717468,-4.42351,http://www.emtmalaga.es/emt-mobile/informacionParada.html?codParada=718
751,751,Camino de San Alberto,36.731853,-4.450659,http://www.emtmalaga.es/emt-mobile/informacionParada.html?codParada=751
754,754,Camino San Alberto (Granja Suárez),36.731121,-4.449926,http://www.emtmalaga.es/emt-mobile/informacionParada.html?codParada=754
755,755,Galeno (Carlinda),36.730226,-4.448234,http://www.emtmalaga.es/emt-mobile/informacionParada.html?codParada=755
756,756,Barón de Les,36.727716,-4.440908,http://www.emtmalaga.es/emt-mobile/informacionParada.html?codParada=756
758,758,Ntra. Sra. Clarines (Pza. Monseñor Bocanegra),36.729693,-4.439597,http://www.emtmalaga.es/emt-mobile/informacionParada.html?codParada=758
759,759,Ntra. Sra. de los Clarines (Gibraljaire),36.731159,-4.437957,http://www.emtmalaga.es/emt-mobile/informacionParada.html?codParada=759
760,760,Av. Arroyo de los Ángeles (Parque Victoria Eugenia),36.730876,-4.435944,http://www.emtmalaga.es/emt-mobile/informacionParada.html?codParada=760
761,761,Avda. Arroyo de los Ángeles (Blas de Lezo),36.729227,-4.433436,http://www.emtmalaga.es/emt-mobile/informacionParada.html?codParada=761
762,762,Avda. Arroyo de los Ángeles (Hospital Materno),36.728443,-4.431318,http://www.emtmalaga.es/emt-mobile/informacionParada.html?codParada=762
791,791,Alameda Principal (Sur),36.717332,-4.423404,http://www.emtmalaga.es/emt-mobile/informacionParada.html?codParada=791
802,802,Martínez Maldonado (Eugenio Gross),36.721592,-4.436326,http://www.emtmalaga.es/emt-mobile/informacionParada.html?codParada=802
803,803,Martínez Maldonado (Las Chapas),36.721591,-4.439004,http://www.emtmalaga.es/emt-mobile/informacionParada.html?codParada=803
804,804,Martínez Maldonado (Arroyo del Cuarto),36.721562,-4.441313,http://www.emtmalaga.es/emt-mobile/informacionParada.html?codParada=804
805,805,Avda. Carlos Haya (Parque del Norte),36.721652,-4.444062,http://www.emtmalaga.es/emt-mobile/informacionParada.html?codParada=805
806,806,Avda. Carlos Haya (Los Remedios),36.722128,-4.446525,http://www.emtmalaga.es/emt-mobile/informacionParada.html?codParada=806
807,807,Avda. Carlos Haya (Hospital),36.722772,-4.450384,http://www.emtmalaga.es/emt-mobile/informacionParada.html?codParada=807
808,808,Avda. Carlos Haya (Parque Florida),36.723122,-4.452561,http://www.emtmalaga.es/emt-mobile/informacionParada.html?codParada=808
809,809,Avda. Carlos Haya (Ortega Prados),36.72367,-4.454261,http://www.emtmalaga.es/emt-mobile/informacionParada.html?codParada=809
810,810,Avda. Carlos Haya (Alcubilla),36.724988,-4.457118,http://www.emtmalaga.es/emt-mobile/informacionParada.html?codParada=810
811,811,Avda. Carlos Haya (Teatinos),36.726048,-4.460102,http://www.emtmalaga.es/emt-mobile/informacionParada.html?codParada=811
812,812,Navarro Ledesma (Quinta Alegre),36.725346,-4.465209,http://www.emtmalaga.es/emt-mobile/informacionParada.html?codParada=812
813,813,Navarro Ledesma (Colonia Sta. Inés),36.725106,-4.466965,http://www.emtmalaga.es/emt-mobile/informacionParada.html?codParada=813
814,814,Navarro Ledesma (Ciudad Sta. Inés),36.724715,-4.470103,http://www.emtmalaga.es/emt-mobile/informacionParada.html?codParada=814
815,815,Avda. de José Ribera (La Palma),36.721613,-4.472362,http://www.emtmalaga.es/emt-mobile/informacionParada.html?codParada=815
816,816,Avda. de José Ribera,36.719492,-4.471501,http://www.emtmalaga.es/emt-mobile/informacionParada.html?codParada=816
817,817,Facultad de Derecho,36.717686,-4.470959,http://www.emtmalaga.es/emt-mobile/informacionParada.html?codParada=817
818,818,Facultad de Medicina,36.716955,-4.474234,http://www.emtmalaga.es/emt-mobile/informacionParada.html?codParada=818
819,819,Navarro Ledesma (Carril del Capitán),36.725645,-4.463057,http://www.emtmalaga.es/emt-mobile/informacionParada.html?codParada=819
820,820,Louis Pasteur (Jimenez Fraud),36.716766,-4.475486,http://www.emtmalaga.es/emt-mobile/informacionParada.html?codParada=820
821,821,Martínez Maldonado (Pelayo),36.721535,-4.433007,http://www.emtmalaga.es/emt-mobile/informacionParada.html?codParada=821
823,823,Hilera (Armengual de la Mota),36.717974,-4.428437,http://www.emtmalaga.es/emt-mobile/informacionParada.html?codParada=823
831,831,Eolo (El Romeral),36.720465,-4.474759,http://www.emtmalaga.es/emt-mobile/informacionParada.html?codParada=831
832,832,Facultad de Filosofía y Letras,36.716652,-4.470169,http://www.emtmalaga.es/emt-mobile/informacionParada.html?codParada=832
833,833,Facultad de Derecho,36.717545,-4.469899,http://www.emtmalaga.es/emt-mobile/informacionParada.html?codParada=833
836,836,Navarro Ledesma (Ciudad Sta. Inés),36.724593,-4.470068,http://www.emtmalaga.es/emt-mobile/informacionParada.html?codParada=836
837,837,Navarro Ledesma (Colonia Sta. Inés),36.725012,-4.46693,http://www.emtmalaga.es/emt-mobile/informacionParada.html?codParada=837
838,838,Navarro Ledesma (Quinta Alegre),36.725247,-4.465167,http://www.emtmalaga.es/emt-mobile/informacionParada.html?codParada=838
839,839,Avda. Carlos Haya (Teatinos),36.725612,-4.459558,http://www.emtmalaga.es/emt-mobile/informacionParada.html?codParada=839
840,840,Avda. Carlos Haya (Alfonso X),36.724745,-4.45732,http://www.emtmalaga.es/emt-mobile/informacionParada.html?codParada=840
841,841,Avda. Carlos Haya (Ortega Prados),36.723522,-4.45428,http://www.emtmalaga.es/emt-mobile/informacionParada.html?codParada=841
842,842,Avda. Carlos Haya (Parque Florida),36.722994,-4.452683,http://www.emtmalaga.es/emt-mobile/informacionParada.html?codParada=842
843,843,Avda. Carlos Haya (Hospital),36.722467,-4.44937,http://www.emtmalaga.es/emt-mobile/informacionParada.html?codParada=843
844,844,Avda. Carlos Haya (Los Remedios),36.722062,-4.447096,http://www.emtmalaga.es/emt-mobile/informacionParada.html?codParada=844
845,845,Avda. Carlos Haya (Parque del Norte),36.721482,-4.443961,http://www.emtmalaga.es/emt-mobile/informacionParada.html?codParada=845
846,846,Martínez Maldonado (Arroyo del Cuarto),36.721393,-4.440873,http://www.emtmalaga.es/emt-mobile/informacionParada.html?codParada=846
847,847,Martínez Maldonado (Las Chapas),36.721398,-4.43854,http://www.emtmalaga.es/emt-mobile/informacionParada.html?codParada=847
848,848,Martínez Maldonado (Eugenio Gross),36.721406,-4.436714,http://www.emtmalaga.es/emt-mobile/informacionParada.html?codParada=848
850,850,Facultad de Ciencias,36.716193,-4.473592,http://www.emtmalaga.es/emt-mobile/informacionParada.html?codParada=850
851,851,Navarro Ledesma (Carril del Capitán),36.725452,-4.462638,http://www.emtmalaga.es/emt-mobile/informacionParada.html?codParada=851
853,853,Avda. Plutarco (Antígona),36.721382,-4.476736,http://www.emtmalaga.es/emt-mobile/informacionParada.html?codParada=853
854,854,Avda. Plutarco (Parménides),36.721652,-4.478842,http://www.emtmalaga.es/emt-mobile/informacionParada.html?codParada=854
861,861,Carril del Ciprés (Carlos Haya),36.722793,-4.448228,http://www.emtmalaga.es/emt-mobile/informacionParada.html?codParada=861
862,862,Carril del Ciprés (Los Cipreses),36.724193,-4.448201,http://www.emtmalaga.es/emt-mobile/informacionParada.html?codParada=862
863,863,Carril del Cipres (Bda. San Martín),36.726039,-4.448896,http://www.emtmalaga.es/emt-mobile/informacionParada.html?codParada=863
864,864,Padre Martín,36.727761,-4.449551,http://www.emtmalaga.es/emt-mobile/informacionParada.html?codParada=864
882,882,Padre Martín,36.727739,-4.44966,http://www.emtmalaga.es/emt-mobile/informacionParada.html?codParada=882
883,883,Núñez Vela (Bda. San Martín),36.726314,-4.449875,http://www.emtmalaga.es/emt-mobile/informacionParada.html?codParada=883
884,884,Núñez Vela (Oscar Wilde),36.725622,-4.451383,http://www.emtmalaga.es/emt-mobile/informacionParada.html?codParada=884
885,885,Nuñez Vela (Av. Carlos Haya),36.723268,-4.451468,http://www.emtmalaga.es/emt-mobile/informacionParada.html?codParada=885
886,886,Granja Suarez (Padre Martin),36.729147,-4.45061,http://www.emtmalaga.es/emt-mobile/informacionParada.html?codParada=886
887,887,Granja Suarez (Padre Martin),36.729576,-4.450544,http://www.emtmalaga.es/emt-mobile/informacionParada.html?codParada=887
906,906,Carril Gamarra (La Rosa),36.723087,-4.44194,http://www.emtmalaga.es/emt-mobile/informacionParada.html?codParada=906
907,907,Magistrado Salvador Barberá,36.724053,-4.443598,http://www.emtmalaga.es/emt-mobile/informacionParada.html?codParada=907
921,921,Avda. de la Rosaleda (La Goleta),36.725848,-4.425477,http://www.emtmalaga.es/emt-mobile/informacionParada.html?codParada=921
922,922,Ingeniero de la Torre Acosta,36.720096,-4.43849,http://www.emtmalaga.es/emt-mobile/informacionParada.html?codParada=922
923,923,Magistrado Salvador Barberá (Centro de Salud),36.725865,-4.44429,http://www.emtmalaga.es/emt-mobile/informacionParada.html?codParada=923
925,925,Doctor Escassi (Las Chapas),36.722084,-4.439845,http://www.emtmalaga.es/emt-mobile/informacionParada.html?codParada=925
926,926,Dr. Escassi (J.M. Freuillier),36.723834,-4.439446,http://www.emtmalaga.es/emt-mobile/informacionParada.html?codParada=926
951,951,Jose Iturbi (Ciudad Nueva Málaga),36.726016,-4.443868,http://www.emtmalaga.es/emt-mobile/informacionParada.html?codParada=951
952,952,Sondalezas (Maestro Pablo Luna),36.725256,-4.442405,http://www.emtmalaga.es/emt-mobile/informacionParada.html?codParada=952
953,953,Sondalezas,36.724239,-4.441764,http://www.emtmalaga.es/emt-mobile/informacionParada.html?codParada=953
957,957,Calzada de la Trinidad,36.724911,-4.431816,http://www.emtmalaga.es/emt-mobile/informacionParada.html?codParada=957
959,959,Avda. Dr. Gálvez Ginachero,36.726745,-4.427439,http://www.emtmalaga.es/emt-mobile/informacionParada.html?codParada=959
961,961,Armengual de la Mota,36.71998,-4.429304,http://www.emtmalaga.es/emt-mobile/informacionParada.html?codParada=961
963,963,Velarde,36.726293,-4.43109,http://www.emtmalaga.es/emt-mobile/informacionParada.html?codParada=963
964,964,Albacete (Rotonda de Suarez),36.728822,-4.443862,http://www.emtmalaga.es/emt-mobile/informacionParada.html?codParada=964
965,965,Dr. Escassi (Dr. Lazárraga),36.723483,-4.43966,http://www.emtmalaga.es/emt-mobile/informacionParada.html?codParada=965
966,966,Dr. Escassi (Las Chapas),36.722164,-4.439962,http://www.emtmalaga.es/emt-mobile/informacionParada.html?codParada=966
967,967,Ingeniero de la Torre Acosta,36.719818,-4.438706,http://www.emtmalaga.es/emt-mobile/informacionParada.html?codParada=967
1002,1002,Avda . de Velázquez (Puerta Blanca),36.692286,-4.455533,http://www.emtmalaga.es/emt-mobile/informacionParada.html?codParada=1002
1003,1003,Avda. de Velázquez (Azucarera),36.682683,-4.467793,http://www.emtmalaga.es/emt-mobile/informacionParada.html?codParada=1003
1005,1005,Avda. de Velázquez (Villa Rosa),36.67413,-4.476963,http://www.emtmalaga.es/emt-mobile/informacionParada.html?codParada=1005
1008,1008,San Julián (Plaza),36.667237,-4.475053,http://www.emtmalaga.es/emt-mobile/informacionParada.html?codParada=1008
1009,1009,Camino Loma de San Julián,36.668181,-4.471826,http://www.emtmalaga.es/emt-mobile/informacionParada.html?codParada=1009
1011,1011,Dª Clarines (Guadalmar),36.665729,-4.466801,http://www.emtmalaga.es/emt-mobile/informacionParada.html?codParada=1011
1012,1012,Hespérides (Guadalmar),36.664273,-4.463633,http://www.emtmalaga.es/emt-mobile/informacionParada.html?codParada=1012
1013,1013,M. Curros Enríquez (Ctra. de Guadalmar),36.668547,-4.46423,http://www.emtmalaga.es/emt-mobile/informacionParada.html?codParada=1013
1014,1014,M. Curros Enríquez (C/ Wilkinson),36.667643,-4.46159,http://www.emtmalaga.es/emt-mobile/informacionParada.html?codParada=1014
1015,1015,Castellón de la Plana (Residencia),36.666311,-4.458172,http://www.emtmalaga.es/emt-mobile/informacionParada.html?codParada=1015
1016,1016,Rogelio Oliva (Hotel Guadalmar),36.664001,-4.460632,http://www.emtmalaga.es/emt-mobile/informacionParada.html?codParada=1016
1017,1017,Rogelio Oliva (C/ Wilkinson),36.665519,-4.46337,http://www.emtmalaga.es/emt-mobile/informacionParada.html?codParada=1017
1018,1018,Rogelio Oliva (Crta. Campo de Golf),36.666786,-4.46611,http://www.emtmalaga.es/emt-mobile/informacionParada.html?codParada=1018
1019,1019,Ctra. Campo de Golf (Vega de Oro),36.657613,-4.474203,http://www.emtmalaga.es/emt-mobile/informacionParada.html?codParada=1019
1020,1020,Ctra. Campo de Golf (Parador de Turismo),36.65337,-4.477835,http://www.emtmalaga.es/emt-mobile/informacionParada.html?codParada=1020
1022,1022,Ctra. de Coín (Los Paseros),36.658536,-4.48956,http://www.emtmalaga.es/emt-mobile/informacionParada.html?codParada=1022
1023,1023,Ctra. de Coín (Centro Comercial),36.659646,-4.493402,http://www.emtmalaga.es/emt-mobile/informacionParada.html?codParada=1023
1024,1024,Ctra. de Coín (P. I. El Alamo),36.660693,-4.498955,http://www.emtmalaga.es/emt-mobile/informacionParada.html?codParada=1024
1025,1025,Ctra. de Coín (Heliomar),36.66142,-4.502779,http://www.emtmalaga.es/emt-mobile/informacionParada.html?codParada=1025
1026,1026,C/ Torremolinos (Heliomar),36.662822,-4.505471,http://www.emtmalaga.es/emt-mobile/informacionParada.html?codParada=1026
1027,1027,Torremolinos (Avda. San Javier),36.665846,-4.503863,http://www.emtmalaga.es/emt-mobile/informacionParada.html?codParada=1027
1028,1028,Teresa Blasco (Mercado),36.667913,-4.503531,http://www.emtmalaga.es/emt-mobile/informacionParada.html?codParada=1028
1029,1029,Camino del Retiro (La Tosca),36.669193,-4.505981,http://www.emtmalaga.es/emt-mobile/informacionParada.html?codParada=1029
1030,1030,Camino del Retiro (Cementerio),36.669184,-4.509089,http://www.emtmalaga.es/emt-mobile/informacionParada.html?codParada=1030
1031,1031,Eduardo Palanca (Los Jazmines),36.66921,-4.512623,http://www.emtmalaga.es/emt-mobile/informacionParada.html?codParada=1031
1032,1032,Caliza (C/ Jaspe),36.669935,-4.512904,http://www.emtmalaga.es/emt-mobile/informacionParada.html?codParada=1032
1033,1033,Caliza (Las Pedrizas),36.670972,-4.511096,http://www.emtmalaga.es/emt-mobile/informacionParada.html?codParada=1033
1034,1034,La Carolina (La Noria),36.672346,-4.508946,http://www.emtmalaga.es/emt-mobile/informacionParada.html?codParada=1034
1035,1035,Plaza de Lola Flores,36.67571,-4.510078,http://www.emtmalaga.es/emt-mobile/informacionParada.html?codParada=1035
1036,1036,Ctra. Campo de Golf (Arraijanal),36.659206,-4.472805,http://www.emtmalaga.es/emt-mobile/informacionParada.html?codParada=1036
1037,1037,Camino Loma de San Julian (Centro Comercial),36.668994,-4.468786,http://www.emtmalaga.es/emt-mobile/informacionParada.html?codParada=1037
1038,1038,Alfredo Kraus (Centro Comercial),36.657521,-4.483497,http://www.emtmalaga.es/emt-mobile/informacionParada.html?codParada=1038
1039,1039,Avda. de Velazquez (Base Aerea),36.661593,-4.484749,http://www.emtmalaga.es/emt-mobile/informacionParada.html?codParada=1039
1040,1040,Maestro Vert (Centro de Salud),36.664825,-4.499021,http://www.emtmalaga.es/emt-mobile/informacionParada.html?codParada=1040
1041,1041,Maestro Vert,36.665803,-4.501823,http://www.emtmalaga.es/emt-mobile/informacionParada.html?codParada=1041
1044,1044,Julio Balbas,36.662304,-4.498851,http://www.emtmalaga.es/emt-mobile/informacionParada.html?codParada=1044
1045,1045,Avda. de Velazquez (Aeropuerto),36.670731,-4.478974,http://www.emtmalaga.es/emt-mobile/informacionParada.html?codParada=1045
1051,1051,Moby Dick (U. Guadalmar),36.6633,-4.459685,http://www.emtmalaga.es/emt-mobile/informacionParada.html?codParada=1051
1052,1052,Moby Dick (Residencia),36.666064,-4.457215,http://www.emtmalaga.es/emt-mobile/informacionParada.html?codParada=1052
1053,1053,M. Curros Enríquez,36.667724,-4.461475,http://www.emtmalaga.es/emt-mobile/informacionParada.html?codParada=1053
1054,1054,M. Curros Enríquez (Ctra. Guadalmar),36.668373,-4.463362,http://www.emtmalaga.es/emt-mobile/informacionParada.html?codParada=1054
1055,1055,Camino Loma de San Julián,36.668274,-4.472107,http://www.emtmalaga.es/emt-mobile/informacionParada.html?codParada=1055
1056,1056,San Julián (Plaza),36.667491,-4.474665,http://www.emtmalaga.es/emt-mobile/informacionParada.html?codParada=1056
1058,1058,Avda. de Velázquez (Villa Rosa),36.674281,-4.476362,http://www.emtmalaga.es/emt-mobile/informacionParada.html?codParada=1058
1059,1059,Avda. de Velazquez (Canal Sur),36.676454,-4.474979,http://www.emtmalaga.es/emt-mobile/informacionParada.html?codParada=1059
1061,1061,Avda. de Velázquez (La Concha),36.682811,-4.467141,http://www.emtmalaga.es/emt-mobile/informacionParada.html?codParada=1061
1063,1063,Avda. de Velázquez (Puerta Blanca),36.691777,-4.455746,http://www.emtmalaga.es/emt-mobile/informacionParada.html?codParada=1063
1064,1064,Camino de la Huertecilla (La Noria),36.674341,-4.508012,http://www.emtmalaga.es/emt-mobile/informacionParada.html?codParada=1064
1065,1065,Camino de la Huertecilla (Paredones),36.671844,-4.505347,http://www.emtmalaga.es/emt-mobile/informacionParada.html?codParada=1065
1066,1066,Plaza de la Inmaculada,36.669923,-4.503152,http://www.emtmalaga.es/emt-mobile/informacionParada.html?codParada=1066
1067,1067,Teresa Blasco (Mercado),36.667443,-4.5036,http://www.emtmalaga.es/emt-mobile/informacionParada.html?codParada=1067
1068,1068,Torremolinos (Avda. San Javier),36.665379,-4.504221,http://www.emtmalaga.es/emt-mobile/informacionParada.html?codParada=1068
1069,1069,Torremolinos (Finca La Hacienda),36.663903,-4.505015,http://www.emtmalaga.es/emt-mobile/informacionParada.html?codParada=1069
1070,1070,Ctra. de Coín (Camino del Pilar),36.661557,-4.505005,http://www.emtmalaga.es/emt-mobile/informacionParada.html?codParada=1070
1071,1071,Ctra. de Coín (Lourdes),36.660407,-4.499157,http://www.emtmalaga.es/emt-mobile/informacionParada.html?codParada=1071
1072,1072,Ctra. de Coín (La Casita de Madera),36.659256,-4.493155,http://www.emtmalaga.es/emt-mobile/informacionParada.html?codParada=1072
1073,1073,Ctra. de Coín (Los Paseros),36.657974,-4.489105,http://www.emtmalaga.es/emt-mobile/informacionParada.html?codParada=1073
1074,1074,Avda. Moserrat Caballe (Parque de Ocio),36.654111,-4.480247,http://www.emtmalaga.es/emt-mobile/informacionParada.html?codParada=1074
1075,1075,Ctra. Campo de Golf (Parador de Turismo),36.653793,-4.477413,http://www.emtmalaga.es/emt-mobile/informacionParada.html?codParada=1075
1076,1076,Ctra. Campo de Golf (Vega de Oro),36.65776,-4.473912,http://www.emtmalaga.es/emt-mobile/informacionParada.html?codParada=1076
1077,1077,Ctra. Campo de Golf (Arraijanal),36.65901,-4.471901,http://www.emtmalaga.es/emt-mobile/informacionParada.html?codParada=1077
1078,1078,Camino Loma San Julián (Centro Comercial),36.66901,-4.469404,http://www.emtmalaga.es/emt-mobile/informacionParada.html?codParada=1078
1079,1079,Alfredo Kraus (Centro Comercial),36.657442,-4.48356,http://www.emtmalaga.es/emt-mobile/informacionParada.html?codParada=1079
1080,1080,Avda Monserrat Caballe (Parque de Ocio),36.653958,-4.480375,http://www.emtmalaga.es/emt-mobile/informacionParada.html?codParada=1080
1081,1081,Avda. de Velazquez (Base Aerea),36.660622,-4.484834,http://www.emtmalaga.es/emt-mobile/informacionParada.html?codParada=1081
1083,1083,Monsalvez,36.667445,-4.500495,http://www.emtmalaga.es/emt-mobile/informacionParada.html?codParada=1083
1084,1084,Enrique Van Dulken (Centro de Salud),36.66501,-4.498811,http://www.emtmalaga.es/emt-mobile/informacionParada.html?codParada=1084
1085,1085,Periodista J.A. Rando,36.662133,-4.49947,http://www.emtmalaga.es/emt-mobile/informacionParada.html?codParada=1085
1086,1086,Avda. de Velazquez (Aeropuerto),36.669147,-4.479536,http://www.emtmalaga.es/emt-mobile/informacionParada.html?codParada=1086
1103,1103,Paseo de Reding (Plaza de Toros),36.720893,-4.410435,http://www.emtmalaga.es/emt-mobile/informacionParada.html?codParada=1103
1104,1104,Paseo de Reding (Hotel Miramar),36.720882,-4.407685,http://www.emtmalaga.es/emt-mobile/informacionParada.html?codParada=1104
1105,1105,Paseo de Sancha (Escuela Turismo),36.721502,-4.402979,http://www.emtmalaga.es/emt-mobile/informacionParada.html?codParada=1105
1106,1106,Paseo de Sancha (Monte Sancha),36.721979,-4.400857,http://www.emtmalaga.es/emt-mobile/informacionParada.html?codParada=1106
1107,1107,Avda. Pintor J. Sorolla (El Limonar),36.722948,-4.397927,http://www.emtmalaga.es/emt-mobile/informacionParada.html?codParada=1107
1108,1108,Avda. Pintor J. Sorolla (Miramar),36.723402,-4.396327,http://www.emtmalaga.es/emt-mobile/informacionParada.html?codParada=1108
1109,1109,Avda. Pintor J. Sorolla (Bellavista),36.7235,-4.394164,http://www.emtmalaga.es/emt-mobile/informacionParada.html?codParada=1109
1110,1110,Avda. Pintor J. Sorolla (El Morlaco),36.722539,-4.388871,http://www.emtmalaga.es/emt-mobile/informacionParada.html?codParada=1110
1111,1111,Bolivia (Baños del Carmen),36.721437,-4.382356,http://www.emtmalaga.es/emt-mobile/informacionParada.html?codParada=1111
1112,1112,Bolivia (Callejón de la marina),36.721441,-4.37866,http://www.emtmalaga.es/emt-mobile/informacionParada.html?codParada=1112
1113,1113,Bolivia (Pedregalejo),36.721496,-4.375242,http://www.emtmalaga.es/emt-mobile/informacionParada.html?codParada=1113
1114,1114,Bolivia Las Acacias,36.720767,-4.370861,http://www.emtmalaga.es/emt-mobile/informacionParada.html?codParada=1114
1115,1115,Salvador Allende (Arroyo Jaboneros),36.719808,-4.365367,http://www.emtmalaga.es/emt-mobile/informacionParada.html?codParada=1115
1116,1116,Salvador Allende (Estación),36.719545,-4.361837,http://www.emtmalaga.es/emt-mobile/informacionParada.html?codParada=1116
1117,1117,Avda. Salvador Allende (Santarén),36.719039,-4.357558,http://www.emtmalaga.es/emt-mobile/informacionParada.html?codParada=1117
1118,1118,Avda. Salvador Allende (Cementerio),36.718505,-4.355106,http://www.emtmalaga.es/emt-mobile/informacionParada.html?codParada=1118
1119,1119,Dr. Gutierrez Mata (Playa Virginia),36.718616,-4.352178,http://www.emtmalaga.es/emt-mobile/informacionParada.html?codParada=1119
1120,1120,Carretera de Olías,36.720474,-4.353141,http://www.emtmalaga.es/emt-mobile/informacionParada.html?codParada=1120
1121,1121,Carretera de Olías (Colegio),36.720913,-4.351415,http://www.emtmalaga.es/emt-mobile/informacionParada.html?codParada=1121
1122,1122,Paseo del Parque (Plaza de la Marina),36.71848,-4.419235,http://www.emtmalaga.es/emt-mobile/informacionParada.html?codParada=1122
1123,1123,Paseo del Parque (Ayuntamiento),36.719689,-4.414922,http://www.emtmalaga.es/emt-mobile/informacionParada.html?codParada=1123
1124,1124,Avda. Juan Sebastian Elcano (Pez Plata),36.721943,-4.379425,http://www.emtmalaga.es/emt-mobile/informacionParada.html?codParada=1124
1125,1125,Avda. Juan Sebastian Elcano (Pedregalejo),36.722243,-4.377115,http://www.emtmalaga.es/emt-mobile/informacionParada.html?codParada=1125
1127,1127,Avda. Juan Sebastian Elcano (Los Galanes),36.722347,-4.373613,http://www.emtmalaga.es/emt-mobile/informacionParada.html?codParada=1127
1128,1128,Avda. Juan Sebatian Elcano (Arroyo Jaboneros),36.722312,-4.366991,http://www.emtmalaga.es/emt-mobile/informacionParada.html?codParada=1128
1129,1129,Av. J. Sebastian Elcano (Pintor Enrique Florido),36.721997,-4.364973,http://www.emtmalaga.es/emt-mobile/informacionParada.html?codParada=1129
1130,1130,Avda. Juan Sebastian Elcano (Echeverria),36.721183,-4.362197,http://www.emtmalaga.es/emt-mobile/informacionParada.html?codParada=1130
1131,1131,Avda. Juan Sebastian Elcano (Iglesia),36.721067,-4.360335,http://www.emtmalaga.es/emt-mobile/informacionParada.html?codParada=1131
1132,1132,Carretera Almería (Padre Coloma),36.720521,-4.356087,http://www.emtmalaga.es/emt-mobile/informacionParada.html?codParada=1132
1133,1133,Carretera de Almeria (Miramar del Palo),36.720117,-4.352961,http://www.emtmalaga.es/emt-mobile/informacionParada.html?codParada=1133
1134,1134,Leopardi (Centro de Salud),36.718182,-4.352921,http://www.emtmalaga.es/emt-mobile/informacionParada.html?codParada=1134
1135,1135,Avda. Juan Sebastian Elcano (Las Acacias),36.722356,-4.369745,http://www.emtmalaga.es/emt-mobile/informacionParada.html?codParada=1135
1151,1151,Carretera de Olías (El Palo),36.721797,-4.348503,http://www.emtmalaga.es/emt-mobile/informacionParada.html?codParada=1151
1152,1152,Carretera de Olías (Pelusa),36.721009,-4.351482,http://www.emtmalaga.es/emt-mobile/informacionParada.html?codParada=1152
1153,1153,Carretera Almería (Chanquete),36.720409,-4.354599,http://www.emtmalaga.es/emt-mobile/informacionParada.html?codParada=1153
1154,1154,Carretera de Almería (Edif. Bahía),36.720743,-4.35657,http://www.emtmalaga.es/emt-mobile/informacionParada.html?codParada=1154
1155,1155,Avda. Juan Sebastián Elcano (Iglesia),36.721168,-4.360449,http://www.emtmalaga.es/emt-mobile/informacionParada.html?codParada=1155
1156,1156,Avda. Juan Sebastián Elcano (Echeverria),36.721699,-4.363407,http://www.emtmalaga.es/emt-mobile/informacionParada.html?codParada=1156
1157,1157,Avda. Juan Sebastián Elcano (Arroyo Jaboneros),36.722472,-4.367691,http://www.emtmalaga.es/emt-mobile/informacionParada.html?codParada=1157
1158,1158,Avda. Juan Sebastián Elcano (Las Acacias),36.722469,-4.369491,http://www.emtmalaga.es/emt-mobile/informacionParada.html?codParada=1158
1159,1159,Avda. Juan Sebastián Elcano (Los Galanes),36.722469,-4.372394,http://www.emtmalaga.es/emt-mobile/informacionParada.html?codParada=1159
1160,1160,Avda. Juan Sebastián Elcano (Pedregalejo),36.722374,-4.376829,http://www.emtmalaga.es/emt-mobile/informacionParada.html?codParada=1160
1161,1161,Avda. Juan Sebastián Elcano (Vicente Espinel),36.722124,-4.378956,http://www.emtmalaga.es/emt-mobile/informacionParada.html?codParada=1161
1162,1162,Avda. Juan Sebastián Elcano (Cerrado Calderon),36.722008,-4.382486,http://www.emtmalaga.es/emt-mobile/informacionParada.html?codParada=1162
1163,1163,Avda. Pintor J. Sorolla (El Morlaco),36.722471,-4.387556,http://www.emtmalaga.es/emt-mobile/informacionParada.html?codParada=1163
1164,1164,Avda. Pintor J. Sorolla (Bellavista),36.723586,-4.394129,http://www.emtmalaga.es/emt-mobile/informacionParada.html?codParada=1164
1165,1165,Avda. Pintor J. Sorolla (Miramar),36.723483,-4.396371,http://www.emtmalaga.es/emt-mobile/informacionParada.html?codParada=1165
1166,1166,Avda. Pintor J. Sorolla (El Limonar),36.722883,-4.398424,http://www.emtmalaga.es/emt-mobile/informacionParada.html?codParada=1166
1167,1167,Paseo de Sancha (Monte Sancha),36.721791,-4.401607,http://www.emtmalaga.es/emt-mobile/informacionParada.html?codParada=1167
1168,1168,Paseo de Sancha (Escuela de Turismo),36.721628,-4.403737,http://www.emtmalaga.es/emt-mobile/informacionParada.html?codParada=1168
1169,1169,Avda. Príes (Cementerio Inglés),36.721129,-4.407093,http://www.emtmalaga.es/emt-mobile/informacionParada.html?codParada=1169
1170,1170,Paseo de Reding (Plaza de Toros),36.721058,-4.410671,http://www.emtmalaga.es/emt-mobile/informacionParada.html?codParada=1170
1171,1171,Paseo del Parque (Ayuntamiento),36.720147,-4.414094,http://www.emtmalaga.es/emt-mobile/informacionParada.html?codParada=1171
1172,1172,Paseo del Parque,36.719417,-4.416673,http://www.emtmalaga.es/emt-mobile/informacionParada.html?codParada=1172
1173,1173,Paseo del Parque (Plaza Marina),36.718677,-4.419332,http://www.emtmalaga.es/emt-mobile/informacionParada.html?codParada=1173
1177,1177,Alameda Principal (Norte),36.717643,-4.422872,http://www.emtmalaga.es/emt-mobile/informacionParada.html?codParada=1177
1201,1201,Paseo del Parque (Plaza del General Torrijos),36.720043,-4.413638,http://www.emtmalaga.es/emt-mobile/informacionParada.html?codParada=1201
1202,1202,Avda. de Europa (Bda. Dos Hermanas),36.702401,-4.446634,http://www.emtmalaga.es/emt-mobile/informacionParada.html?codParada=1202
1203,1203,Avda. de Europa (Bda. El Torcal),36.701491,-4.449624,http://www.emtmalaga.es/emt-mobile/informacionParada.html?codParada=1203
1204,1204,Avda. Europa (San Andrés 1ª Fase),36.700441,-4.451877,http://www.emtmalaga.es/emt-mobile/informacionParada.html?codParada=1204
1205,1205,Avda. Europa (Vistafranca),36.699065,-4.454296,http://www.emtmalaga.es/emt-mobile/informacionParada.html?codParada=1205
1206,1206,Avda. de Europa (La Luz),36.698341,-4.45557,http://www.emtmalaga.es/emt-mobile/informacionParada.html?codParada=1206
1207,1207,Avda. Europa San Andrés (2ª Fase),36.697646,-4.45684,http://www.emtmalaga.es/emt-mobile/informacionParada.html?codParada=1207
1209,1209,Avda. de Europa (Camino Viejo de Churriana),36.696783,-4.458475,http://www.emtmalaga.es/emt-mobile/informacionParada.html?codParada=1209
1251,1251,Polígono Santa Bárbara,36.694691,-4.461549,http://www.emtmalaga.es/emt-mobile/informacionParada.html?codParada=1251
1252,1252,Avda. de Europa (Camino Viejo de Churriana),36.69668,-4.458184,http://www.emtmalaga.es/emt-mobile/informacionParada.html?codParada=1252
1253,1253,Avda. de Europa (San Andrés 2ª Fase),36.697674,-4.456318,http://www.emtmalaga.es/emt-mobile/informacionParada.html?codParada=1253
1254,1254,Avda. Europa (Vistafranca),36.698829,-4.454258,http://www.emtmalaga.es/emt-mobile/informacionParada.html?codParada=1254
1255,1255,Avda. Europa (San Andrés 1ª Fase),36.700252,-4.451703,http://www.emtmalaga.es/emt-mobile/informacionParada.html?codParada=1255
1256,1256,Avda. de Europa (Bda. El Torcal),36.701597,-4.448742,http://www.emtmalaga.es/emt-mobile/informacionParada.html?codParada=1256
1259,1259,La Hoz (Mercado  de Huelin),36.702599,-4.438303,http://www.emtmalaga.es/emt-mobile/informacionParada.html?codParada=1259
1301,1301,Paseo Mtmo. Ciudad de Melilla (Paseo Farola),36.715341,-4.413113,http://www.emtmalaga.es/emt-mobile/informacionParada.html?codParada=1301
1304,1304,Capuchinos,36.727613,-4.422015,http://www.emtmalaga.es/emt-mobile/informacionParada.html?codParada=1304
1305,1305,Peinado,36.731351,-4.422677,http://www.emtmalaga.es/emt-mobile/informacionParada.html?codParada=1305
1352,1352,Cruz del Molinillo,36.726854,-4.424011,http://www.emtmalaga.es/emt-mobile/informacionParada.html?codParada=1352
1354,1354,Eduardo Domínguez Ávila,36.730185,-4.4215,http://www.emtmalaga.es/emt-mobile/informacionParada.html?codParada=1354
1359,1359,Paseo de la Farola (Comandancia de Marina),36.717816,-4.412449,http://www.emtmalaga.es/emt-mobile/informacionParada.html?codParada=1359
1402,1402,Avda. de Andalucía (Rotonda),36.717039,-4.430459,http://www.emtmalaga.es/emt-mobile/informacionParada.html?codParada=1402
1403,1403,Avda. de Andalucía (Jardines Picasso),36.717246,-4.433363,http://www.emtmalaga.es/emt-mobile/informacionParada.html?codParada=1403
1404,1404,Avda. de Andalucía (Puente de las Américas),36.717143,-4.438052,http://www.emtmalaga.es/emt-mobile/informacionParada.html?codParada=1404
1405,1405,Avda. de Andalucía (Centro de Salud),36.716505,-4.441182,http://www.emtmalaga.es/emt-mobile/informacionParada.html?codParada=1405
1406,1406,Virgen de la Estrella (Centro de Salud),36.716643,-4.443218,http://www.emtmalaga.es/emt-mobile/informacionParada.html?codParada=1406
1409,1409,Virgen de la Cabeza,36.717825,-4.448714,http://www.emtmalaga.es/emt-mobile/informacionParada.html?codParada=1409
1410,1410,Cómpeta,36.719246,-4.450264,http://www.emtmalaga.es/emt-mobile/informacionParada.html?codParada=1410
1412,1412,Cómpeta (Plaza de J. Bergamín),36.719501,-4.453209,http://www.emtmalaga.es/emt-mobile/informacionParada.html?codParada=1412
1413,1413,Almogía,36.718074,-4.454474,http://www.emtmalaga.es/emt-mobile/informacionParada.html?codParada=1413
1416,1416,Avda. de la Aurora (Puente de las Américas),36.715776,-4.438405,http://www.emtmalaga.es/emt-mobile/informacionParada.html?codParada=1416
1417,1417,Avda. de la Aurora (Horacio Lengo),36.715056,-4.440805,http://www.emtmalaga.es/emt-mobile/informacionParada.html?codParada=1417
1419,1419,Plaza de Sandro Botticelli,36.719483,-4.460218,http://www.emtmalaga.es/emt-mobile/informacionParada.html?codParada=1419
1421,1421,Paseo de la Farola,36.714761,-4.414282,http://www.emtmalaga.es/emt-mobile/informacionParada.html?codParada=1421
1452,1452,Corregidor Nicolás Isidro (C. El Ángel),36.715158,-4.452738,http://www.emtmalaga.es/emt-mobile/informacionParada.html?codParada=1452
1454,1454,Cómpeta (C. P. Antonio Machado),36.719091,-4.451267,http://www.emtmalaga.es/emt-mobile/informacionParada.html?codParada=1454
1455,1455,Avda. Herrera Oria (Polideportivo),36.718772,-4.447282,http://www.emtmalaga.es/emt-mobile/informacionParada.html?codParada=1455
1457,1457,Virgen de la Esperanza (Mercado),36.71719,-4.446044,http://www.emtmalaga.es/emt-mobile/informacionParada.html?codParada=1457
1460,1460,Avda. de Andalucía (Centro de Salud),36.71626,-4.441017,http://www.emtmalaga.es/emt-mobile/informacionParada.html?codParada=1460
1461,1461,Avda. de Andalucía (Puente de las Américas),36.716654,-4.438692,http://www.emtmalaga.es/emt-mobile/informacionParada.html?codParada=1461
1462,1462,Avda. de Andalucía (Jardines Picasso),36.716939,-4.432869,http://www.emtmalaga.es/emt-mobile/informacionParada.html?codParada=1462
1463,1463,Avda. de Andalucía (Rotonda),36.716763,-4.430534,http://www.emtmalaga.es/emt-mobile/informacionParada.html?codParada=1463
1465,1465,Almogía (C. P.  R. León),36.717981,-4.454213,http://www.emtmalaga.es/emt-mobile/informacionParada.html?codParada=1465
1466,1466,Cómpeta (Plaza de J. Bergamín),36.719261,-4.453588,http://www.emtmalaga.es/emt-mobile/informacionParada.html?codParada=1466
1467,1467,Plaza de Jose Bergamín,36.718926,-4.455252,http://www.emtmalaga.es/emt-mobile/informacionParada.html?codParada=1467
1468,1468,Avda. de la Aurora (Horacio Lengo),36.7149,-4.440724,http://www.emtmalaga.es/emt-mobile/informacionParada.html?codParada=1468
1471,1471,Alameda Principal (Sur),36.717664,-4.422189,http://www.emtmalaga.es/emt-mobile/informacionParada.html?codParada=1471
1502,1502,Camino de la Virreina,36.740103,-4.426207,http://www.emtmalaga.es/emt-mobile/informacionParada.html?codParada=1502
1503,1503,Avda. de la Palmilla (Centro de Salud),36.738304,-4.426816,http://www.emtmalaga.es/emt-mobile/informacionParada.html?codParada=1503
1504,1504,Avda. de la Palmilla (Instituto Guadalmedina),36.736753,-4.427367,http://www.emtmalaga.es/emt-mobile/informacionParada.html?codParada=1504
1505,1505,Avda. de la Palmilla (Campo de Futbol),36.733584,-4.427633,http://www.emtmalaga.es/emt-mobile/informacionParada.html?codParada=1505
1506,1506,Avda. Dr. Marañón (Conde de Ferrería),36.731612,-4.42845,http://www.emtmalaga.es/emt-mobile/informacionParada.html?codParada=1506
1507,1507,Avda. Dr. Marañón,36.729108,-4.428602,http://www.emtmalaga.es/emt-mobile/informacionParada.html?codParada=1507
1508,1508,Eugenio Gross,36.724036,-4.435844,http://www.emtmalaga.es/emt-mobile/informacionParada.html?codParada=1508
1512,1512,Avda. Sta. Rosa de Lima,36.721195,-4.449289,http://www.emtmalaga.es/emt-mobile/informacionParada.html?codParada=1512
1513,1513,Avda. Sta. Rosa de Lima (Competa),36.719604,-4.449444,http://www.emtmalaga.es/emt-mobile/informacionParada.html?codParada=1513
1514,1514,Virgen de la Cabeza (J. Viciana),36.717479,-4.448862,http://www.emtmalaga.es/emt-mobile/informacionParada.html?codParada=1514
1515,1515,Avda. Juan XXIII (Barbarela),36.71219,-4.446658,http://www.emtmalaga.es/emt-mobile/informacionParada.html?codParada=1515
1516,1516,Avda. Juan XXIII (Camino de San Rafael),36.710483,-4.445507,http://www.emtmalaga.es/emt-mobile/informacionParada.html?codParada=1516
1517,1517,Avda. Juan XXIII (Bodegueros),36.708203,-4.444028,http://www.emtmalaga.es/emt-mobile/informacionParada.html?codParada=1517
1518,1518,Avda. Europa,36.703842,-4.441504,http://www.emtmalaga.es/emt-mobile/informacionParada.html?codParada=1518
1519,1519,Avda. de la Paloma,36.70209,-4.445263,http://www.emtmalaga.es/emt-mobile/informacionParada.html?codParada=1519
1521,1521,Las Delicias,36.696729,-4.442077,http://www.emtmalaga.es/emt-mobile/informacionParada.html?codParada=1521
1522,1522,Parque Mediterráneo,36.694903,-4.443483,http://www.emtmalaga.es/emt-mobile/informacionParada.html?codParada=1522
1523,1523,Luis Barahona Soto (Parque del Oeste),36.693564,-4.444649,http://www.emtmalaga.es/emt-mobile/informacionParada.html?codParada=1523
1524,1524,Santa Paula,36.691225,-4.446694,http://www.emtmalaga.es/emt-mobile/informacionParada.html?codParada=1524
1525,1525,Camino de la Térmica (Selene),36.689536,-4.447721,http://www.emtmalaga.es/emt-mobile/informacionParada.html?codParada=1525
1526,1526,Avda. de la Paloma (Bda. Girón),36.70054,-4.441839,http://www.emtmalaga.es/emt-mobile/informacionParada.html?codParada=1526
1527,1527,Plaza Herbert Von Karajan,36.742541,-4.426661,http://www.emtmalaga.es/emt-mobile/informacionParada.html?codParada=1527
1528,1528,Eugenio Gross (Martinez de la Rosa),36.726132,-4.435294,http://www.emtmalaga.es/emt-mobile/informacionParada.html?codParada=1528
1530,1530,Avda. Sor Teresa Prat (Tabacalera),36.699336,-4.440255,http://www.emtmalaga.es/emt-mobile/informacionParada.html?codParada=1530
1551,1551,Camino de la Térmica (Las Pirámides),36.688375,-4.4479,http://www.emtmalaga.es/emt-mobile/informacionParada.html?codParada=1551
1552,1552,Camino de la Térmica (Selene),36.689525,-4.447531,http://www.emtmalaga.es/emt-mobile/informacionParada.html?codParada=1552
1553,1553,Luis Barahona Soto (Santa Paula),36.69164,-4.446121,http://www.emtmalaga.es/emt-mobile/informacionParada.html?codParada=1553
1554,1554,Luis Barahona Soto (Parque Mediterráneo),36.693547,-4.444449,http://www.emtmalaga.es/emt-mobile/informacionParada.html?codParada=1554
1555,1555,Avda. Sor Teresa Prat (Bda. De las Delicias),36.695993,-4.442348,http://www.emtmalaga.es/emt-mobile/informacionParada.html?codParada=1555
1556,1556,Avda. Sor Teresa Prat (Ave Maria),36.697289,-4.441379,http://www.emtmalaga.es/emt-mobile/informacionParada.html?codParada=1556
1557,1557,Avda. Sor Teresa Prat (Tabacalera),36.699497,-4.439815,http://www.emtmalaga.es/emt-mobile/informacionParada.html?codParada=1557
1558,1558,Orellana Toledano (San Patricio),36.702274,-4.439133,http://www.emtmalaga.es/emt-mobile/informacionParada.html?codParada=1558
1559,1559,Avda. Juan XXIII (Princesa),36.704642,-4.441213,http://www.emtmalaga.es/emt-mobile/informacionParada.html?codParada=1559
1560,1560,Avda. Juan XXIII (La Unión),36.708923,-4.44409,http://www.emtmalaga.es/emt-mobile/informacionParada.html?codParada=1560
1561,1561,Avda. Juan XXIII (Barbarela),36.71186,-4.446092,http://www.emtmalaga.es/emt-mobile/informacionParada.html?codParada=1561
1563,1563,Avda. Santa Rosa de Lima (Polideportivo),36.720917,-4.449048,http://www.emtmalaga.es/emt-mobile/informacionParada.html?codParada=1563
1566,1566,Eugenio Gross (Lanuza),36.722622,-4.435696,http://www.emtmalaga.es/emt-mobile/informacionParada.html?codParada=1566
1567,1567,Eugenio Gross (Trinidad),36.726584,-4.434985,http://www.emtmalaga.es/emt-mobile/informacionParada.html?codParada=1567
1568,1568,Avda. Dr. Marañón,36.728338,-4.428501,http://www.emtmalaga.es/emt-mobile/informacionParada.html?codParada=1568
1569,1569,Avda. Dr. Marañón (Conde de Ferrería),36.73161,-4.428289,http://www.emtmalaga.es/emt-mobile/informacionParada.html?codParada=1569
1570,1570,Avda. de la Palmilla (Campo de Fútbol),36.733582,-4.427413,http://www.emtmalaga.es/emt-mobile/informacionParada.html?codParada=1570
1571,1571,Avda. de la Palmilla (Instituto Guadalmedina),36.736321,-4.427176,http://www.emtmalaga.es/emt-mobile/informacionParada.html?codParada=1571
1572,1572,Avda. de la Palmilla (Centro de Salud),36.738272,-4.426601,http://www.emtmalaga.es/emt-mobile/informacionParada.html?codParada=1572
1573,1573,Camino de la Virreina (Puente),36.740686,-4.426197,http://www.emtmalaga.es/emt-mobile/informacionParada.html?codParada=1573
1601,1601,Paseo del Parque (Plaza del General Torrijos),36.720499,-4.413145,http://www.emtmalaga.es/emt-mobile/informacionParada.html?codParada=1601
1602,1602,Camino de la Térmica (San Patricio),36.687075,-4.447806,http://www.emtmalaga.es/emt-mobile/informacionParada.html?codParada=1602
1603,1603,Camino de la Térmica (Central),36.684682,-4.449017,http://www.emtmalaga.es/emt-mobile/informacionParada.html?codParada=1603
1606,1606,Héroe de Sostoa (Estación),36.711189,-4.431406,http://www.emtmalaga.es/emt-mobile/informacionParada.html?codParada=1606
1607,1607,Imperio Argentina (Camino de la Termica),36.681432,-4.451084,http://www.emtmalaga.es/emt-mobile/informacionParada.html?codParada=1607
1608,1608,Marilyn Monroe,36.681772,-4.454215,http://www.emtmalaga.es/emt-mobile/informacionParada.html?codParada=1608
1609,1609,Alicia De Larrocha,36.682074,-4.456031,http://www.emtmalaga.es/emt-mobile/informacionParada.html?codParada=1609
1652,1652,Camino de la Térmica (Imperio Argentina),36.681334,-4.450623,http://www.emtmalaga.es/emt-mobile/informacionParada.html?codParada=1652
1653,1653,Camino de la Térmica (Central),36.684586,-4.448891,http://www.emtmalaga.es/emt-mobile/informacionParada.html?codParada=1653
1654,1654,Camino de la Térmica (San Patricio),36.686518,-4.447855,http://www.emtmalaga.es/emt-mobile/informacionParada.html?codParada=1654
1659,1659,Imperio Argentina (Palacio Deportes),36.683686,-4.457779,http://www.emtmalaga.es/emt-mobile/informacionParada.html?codParada=1659
1660,1660,Imperio Argentina (Marilyn Monroe),36.682396,-4.454475,http://www.emtmalaga.es/emt-mobile/informacionParada.html?codParada=1660
1702,1702,Plaza de la Virreina,36.742261,-4.426511,http://www.emtmalaga.es/emt-mobile/informacionParada.html?codParada=1702
1704,1704,Dr. Muguerza Bernal (Manuel Callejon),36.740335,-4.428858,http://www.emtmalaga.es/emt-mobile/informacionParada.html?codParada=1704
1706,1706,Eume (Mercado),36.741662,-4.43139,http://www.emtmalaga.es/emt-mobile/informacionParada.html?codParada=1706
1707,1707,Ebro,36.740455,-4.432188,http://www.emtmalaga.es/emt-mobile/informacionParada.html?codParada=1707
1708,1708,Avda. Luis Buñuel (La Roca),36.733326,-4.429372,http://www.emtmalaga.es/emt-mobile/informacionParada.html?codParada=1708
1709,1709,Avda. Simón Bolivar (Centro Comercial),36.734762,-4.433334,http://www.emtmalaga.es/emt-mobile/informacionParada.html?codParada=1709
1710,1710,Avda. Valle Inclán (La Palma),36.737374,-4.427716,http://www.emtmalaga.es/emt-mobile/informacionParada.html?codParada=1710
1711,1711,Bidasoa,36.737833,-4.427455,http://www.emtmalaga.es/emt-mobile/informacionParada.html?codParada=1711
1712,1712,Jane Bowles (Von Karajan),36.743977,-4.426441,http://www.emtmalaga.es/emt-mobile/informacionParada.html?codParada=1712
1713,1713,Jane Bowles (Borodin),36.745949,-4.426286,http://www.emtmalaga.es/emt-mobile/informacionParada.html?codParada=1713
1714,1714,Atarazanas,36.717915,-4.424445,http://www.emtmalaga.es/emt-mobile/informacionParada.html?codParada=1714
1751,1751,Deva (La Palma),36.738524,-4.432263,http://www.emtmalaga.es/emt-mobile/informacionParada.html?codParada=1751
1752,1752,Duero,36.737814,-4.430765,http://www.emtmalaga.es/emt-mobile/informacionParada.html?codParada=1752
1753,1753,Cabriel,36.738879,-4.430046,http://www.emtmalaga.es/emt-mobile/informacionParada.html?codParada=1753
1754,1754,Cabriel (Rotonda),36.740128,-4.429893,http://www.emtmalaga.es/emt-mobile/informacionParada.html?codParada=1754
1755,1755,Dr. Muguerza Bernal (Manuel Callejon),36.740223,-4.428823,http://www.emtmalaga.es/emt-mobile/informacionParada.html?codParada=1755
1756,1756,Dr. Muguerza Bernal,36.740005,-4.426479,http://www.emtmalaga.es/emt-mobile/informacionParada.html?codParada=1756
1758,1758,Avda. Valle Inclán (La Palma),36.737615,-4.427975,http://www.emtmalaga.es/emt-mobile/informacionParada.html?codParada=1758
1759,1759,Avda. Simón Bolivar (Centro Comercial),36.734197,-4.433652,http://www.emtmalaga.es/emt-mobile/informacionParada.html?codParada=1759
1760,1760,Avda. Luis Buñuel (La Roca),36.732949,-4.428866,http://www.emtmalaga.es/emt-mobile/informacionParada.html?codParada=1760
1761,1761,Jane Bowles (Bruckner),36.74802,-4.426446,http://www.emtmalaga.es/emt-mobile/informacionParada.html?codParada=1761
1762,1762,Jane Bowles (Borodin),36.74593,-4.42654,http://www.emtmalaga.es/emt-mobile/informacionParada.html?codParada=1762
1763,1763,Jane Bowles (Von Karajan),36.743731,-4.426661,http://www.emtmalaga.es/emt-mobile/informacionParada.html?codParada=1763
1764,1764,Jane Bowles (Bruckner),36.748231,-4.426251,http://www.emtmalaga.es/emt-mobile/informacionParada.html?codParada=1764
1802,1802,Pso. Mtmo. Cdad. de Melilla (Pza.  Malagueta),36.71758,-4.410352,http://www.emtmalaga.es/emt-mobile/informacionParada.html?codParada=1802
1803,1803,Paseo del Parque (Plaza Marina),36.718783,-4.418946,http://www.emtmalaga.es/emt-mobile/informacionParada.html?codParada=1803
1805,1805,Av. de las Américas (Puente de las Américas),36.715526,-4.436551,http://www.emtmalaga.es/emt-mobile/informacionParada.html?codParada=1805
1809,1809,Virgen de la Fuensanta (Mercado),36.714484,-4.443943,http://www.emtmalaga.es/emt-mobile/informacionParada.html?codParada=1809
1810,1810,Avda. de la Aurora (Centro Comercial),36.716282,-4.431483,http://www.emtmalaga.es/emt-mobile/informacionParada.html?codParada=1810
1811,1811,Avda. de la Aurora (Jardines Picasso),36.716333,-4.434013,http://www.emtmalaga.es/emt-mobile/informacionParada.html?codParada=1811
1812,1812,Virgen de la Estrella (El Fuerte),36.715561,-4.442904,http://www.emtmalaga.es/emt-mobile/informacionParada.html?codParada=1812
1813,1813,Av. de las Américas (Centro Comercial),36.715239,-4.435171,http://www.emtmalaga.es/emt-mobile/informacionParada.html?codParada=1813
1814,1814,Av. J.L. Borges (Orson Welles),36.720153,-4.462611,http://www.emtmalaga.es/emt-mobile/informacionParada.html?codParada=1814
1852,1852,Avda. Herrera Oria (Virgen de las Flores),36.718707,-4.443743,http://www.emtmalaga.es/emt-mobile/informacionParada.html?codParada=1852
1853,1853,Virgen de la Esperanza (Avda. Andalucía),36.715219,-4.445491,http://www.emtmalaga.es/emt-mobile/informacionParada.html?codParada=1853
1858,1858,Avda. de la Aurora (Puente de las Américas),36.715655,-4.437974,http://www.emtmalaga.es/emt-mobile/informacionParada.html?codParada=1858
1859,1859,Avda. de la Aurora (Jardines de Picasso),36.716123,-4.434444,http://www.emtmalaga.es/emt-mobile/informacionParada.html?codParada=1859
1860,1860,Avda. de la Aurora (Centro Comercial),36.716001,-4.430889,http://www.emtmalaga.es/emt-mobile/informacionParada.html?codParada=1860
1862,1862,Av. de las Américas (Centro Comercial),36.714697,-4.43429,http://www.emtmalaga.es/emt-mobile/informacionParada.html?codParada=1862
1863,1863,Blas de Lezo,36.728278,-4.434567,http://www.emtmalaga.es/emt-mobile/informacionParada.html?codParada=1863
1864,1864,Las Virreinas,36.75186,-4.428184,http://www.emtmalaga.es/emt-mobile/informacionParada.html?codParada=1864
1901,1901,Paseo del Parque (Plaza del General Torrijos),36.720125,-4.413127,http://www.emtmalaga.es/emt-mobile/informacionParada.html?codParada=1901
1905,1905,Estación de Autobuses,36.712476,-4.433756,http://www.emtmalaga.es/emt-mobile/informacionParada.html?codParada=1905
1907,1907,P.I. Huerta Correo,36.706605,-4.466976,http://www.emtmalaga.es/emt-mobile/informacionParada.html?codParada=1907
1908,1908,Poligono Alameda,36.706909,-4.471136,http://www.emtmalaga.es/emt-mobile/informacionParada.html?codParada=1908
1909,1909,P.I.El Viso,36.707685,-4.475503,http://www.emtmalaga.es/emt-mobile/informacionParada.html?codParada=1909
1910,1910,Sánchez Blanca,36.70851,-4.481536,http://www.emtmalaga.es/emt-mobile/informacionParada.html?codParada=1910
1911,1911,San Jose del Viso,36.708495,-4.48925,http://www.emtmalaga.es/emt-mobile/informacionParada.html?codParada=1911
1912,1912,Intelhorce,36.708218,-4.492111,http://www.emtmalaga.es/emt-mobile/informacionParada.html?codParada=1912
1913,1913,Tarajal,36.706284,-4.505208,http://www.emtmalaga.es/emt-mobile/informacionParada.html?codParada=1913
1914,1914,P.I. La Huertecilla,36.706506,-4.510738,http://www.emtmalaga.es/emt-mobile/informacionParada.html?codParada=1914
1915,1915,Mercamalaga,36.706289,-4.514323,http://www.emtmalaga.es/emt-mobile/informacionParada.html?codParada=1915
1916,1916,P.I. Trévenez,36.706635,-4.519756,http://www.emtmalaga.es/emt-mobile/informacionParada.html?codParada=1916
1917,1917,Cortijo Jurado,36.714316,-4.529472,http://www.emtmalaga.es/emt-mobile/informacionParada.html?codParada=1917
1918,1918,Azucarera (Intelhorce),36.704329,-4.492995,http://www.emtmalaga.es/emt-mobile/informacionParada.html?codParada=1918
1953,1953,Avda. Comandante García Morato (Aeroclub),36.671674,-4.484696,http://www.emtmalaga.es/emt-mobile/informacionParada.html?codParada=1953
1956,1956,Aeropuerto (Llegadas),36.676914,-4.490332,http://www.emtmalaga.es/emt-mobile/informacionParada.html?codParada=1956
1957,1957,Aeropuerto (Servicios Administrativos),36.673003,-4.487368,http://www.emtmalaga.es/emt-mobile/informacionParada.html?codParada=1957
1959,1959,Estación Autobuses,36.712461,-4.433818,http://www.emtmalaga.es/emt-mobile/informacionParada.html?codParada=1959
1960,1960,Cortijo Jurado,36.71137,-4.52659,http://www.emtmalaga.es/emt-mobile/informacionParada.html?codParada=1960
1961,1961,P.I. Trévenez,36.706574,-4.519827,http://www.emtmalaga.es/emt-mobile/informacionParada.html?codParada=1961
1962,1962,Mercamalaga,36.706139,-4.514315,http://www.emtmalaga.es/emt-mobile/informacionParada.html?codParada=1962
1963,1963,P.I. La Huertecilla,36.706347,-4.511024,http://www.emtmalaga.es/emt-mobile/informacionParada.html?codParada=1963
1964,1964,El Tarajal,36.706161,-4.505146,http://www.emtmalaga.es/emt-mobile/informacionParada.html?codParada=1964
1965,1965,Intelhorce,36.707897,-4.492249,http://www.emtmalaga.es/emt-mobile/informacionParada.html?codParada=1965
1966,1966,San Jose del Viso,36.708027,-4.487532,http://www.emtmalaga.es/emt-mobile/informacionParada.html?codParada=1966
1967,1967,Sánchez Blanca,36.707865,-4.479999,http://www.emtmalaga.es/emt-mobile/informacionParada.html?codParada=1967
1968,1968,P.I. El Viso,36.707293,-4.47543,http://www.emtmalaga.es/emt-mobile/informacionParada.html?codParada=1968
1969,1969,Poligono Alameda,36.706456,-4.470869,http://www.emtmalaga.es/emt-mobile/informacionParada.html?codParada=1969
1970,1970,P.I. Huerta Correo,36.7064,-4.465607,http://www.emtmalaga.es/emt-mobile/informacionParada.html?codParada=1970
1971,1971,Azucarera (Intelhorce),36.704395,-4.493067,http://www.emtmalaga.es/emt-mobile/informacionParada.html?codParada=1971
1972,1972,Santa Rosalia (Loma del Campo),36.734102,-4.576132,http://www.emtmalaga.es/emt-mobile/informacionParada.html?codParada=1972
2003,2003,Plaza de Manuel Azaña,36.715062,-4.449246,http://www.emtmalaga.es/emt-mobile/informacionParada.html?codParada=2003
2009,2009,Avda. de Andalucía (Rotonda),36.717059,-4.430713,http://www.emtmalaga.es/emt-mobile/informacionParada.html?codParada=2009
2011,2011,Facultad de Medicina,36.717117,-4.473115,http://www.emtmalaga.es/emt-mobile/informacionParada.html?codParada=2011
2055,2055,Plaza de Manuel Azaña,36.714673,-4.449509,http://www.emtmalaga.es/emt-mobile/informacionParada.html?codParada=2055
2056,2056,Louis Pasteur,36.71639,-4.475061,http://www.emtmalaga.es/emt-mobile/informacionParada.html?codParada=2056
2061,2061,Nazareno del Paso,36.717488,-4.427133,http://www.emtmalaga.es/emt-mobile/informacionParada.html?codParada=2061
2102,2102,Avda. Lope de Vega (Depuradora),36.729688,-4.466749,http://www.emtmalaga.es/emt-mobile/informacionParada.html?codParada=2102
2103,2103,Avda. Lope de Vega (El Atabal),36.731137,-4.468966,http://www.emtmalaga.es/emt-mobile/informacionParada.html?codParada=2103
2104,2104,Avda. Lope de Vega (Los Ramos),36.732671,-4.473711,http://www.emtmalaga.es/emt-mobile/informacionParada.html?codParada=2104
2105,2105,Lope de Rueda (Tomillar),36.734734,-4.478248,http://www.emtmalaga.es/emt-mobile/informacionParada.html?codParada=2105
2106,2106,Lope de Rueda (Patronato Vivienda),36.736175,-4.479193,http://www.emtmalaga.es/emt-mobile/informacionParada.html?codParada=2106
2107,2107,Lope de Rueda (Tomillares),36.738015,-4.480443,http://www.emtmalaga.es/emt-mobile/informacionParada.html?codParada=2107
2108,2108,Lope de Rueda (Correos),36.739857,-4.481926,http://www.emtmalaga.es/emt-mobile/informacionParada.html?codParada=2108
2109,2109,Lope de Rueda (Los Morales),36.740043,-4.484907,http://www.emtmalaga.es/emt-mobile/informacionParada.html?codParada=2109
2110,2110,Lope de Rueda (Sta. Isabel),36.741812,-4.488064,http://www.emtmalaga.es/emt-mobile/informacionParada.html?codParada=2110
2111,2111,Lope de Rueda (Las Morillas),36.743524,-4.489707,http://www.emtmalaga.es/emt-mobile/informacionParada.html?codParada=2111
2112,2112,Puerto de la Torre (Salinas),36.74524,-4.491407,http://www.emtmalaga.es/emt-mobile/informacionParada.html?codParada=2112
2113,2113,Puerto Sol,36.746882,-4.492333,http://www.emtmalaga.es/emt-mobile/informacionParada.html?codParada=2113
2114,2114,San Cayetano,36.754672,-4.493976,http://www.emtmalaga.es/emt-mobile/informacionParada.html?codParada=2114
2115,2115,El Cortijuelo,36.757162,-4.495373,http://www.emtmalaga.es/emt-mobile/informacionParada.html?codParada=2115
2116,2116,Lope de Vega (Hacienda Cabello),36.727814,-4.463815,http://www.emtmalaga.es/emt-mobile/informacionParada.html?codParada=2116
2117,2117,Avda. Lope de Vega (Rosa Garcia),36.732983,-4.475309,http://www.emtmalaga.es/emt-mobile/informacionParada.html?codParada=2117
2118,2118,Hilera (Armengual de la Mota),36.717956,-4.428088,http://www.emtmalaga.es/emt-mobile/informacionParada.html?codParada=2118
2119,2119,Alameda Principal (Sur),36.717156,-4.424051,http://www.emtmalaga.es/emt-mobile/informacionParada.html?codParada=2119
2151,2151,Junta de los Caminos,36.759652,-4.496863,http://www.emtmalaga.es/emt-mobile/informacionParada.html?codParada=2151
2152,2152,El Cortijuelo,36.756257,-4.495104,http://www.emtmalaga.es/emt-mobile/informacionParada.html?codParada=2152
2153,2153,San Cayetano,36.753845,-4.493522,http://www.emtmalaga.es/emt-mobile/informacionParada.html?codParada=2153
2154,2154,Puerto Sol,36.748887,-4.493255,http://www.emtmalaga.es/emt-mobile/informacionParada.html?codParada=2154
2155,2155,Puerto de la Torre (Salinas),36.745083,-4.491568,http://www.emtmalaga.es/emt-mobile/informacionParada.html?codParada=2155
2156,2156,Lope de Rueda (Las Morillas),36.742569,-4.488988,http://www.emtmalaga.es/emt-mobile/informacionParada.html?codParada=2156
2157,2157,Lope de Rueda (Sta. Isabel),36.741119,-4.487641,http://www.emtmalaga.es/emt-mobile/informacionParada.html?codParada=2157
2158,2158,Lope de Rueda (Los Morales),36.739929,-4.484508,http://www.emtmalaga.es/emt-mobile/informacionParada.html?codParada=2158
2159,2159,Lope de Rueda (Correos),36.73897,-4.481318,http://www.emtmalaga.es/emt-mobile/informacionParada.html?codParada=2159
2160,2160,Lope de Rueda (Tomillares),36.737392,-4.480155,http://www.emtmalaga.es/emt-mobile/informacionParada.html?codParada=2160
2161,2161,Lope de Rueda (Patronato Vivienda),36.736043,-4.479242,http://www.emtmalaga.es/emt-mobile/informacionParada.html?codParada=2161
2162,2162,Lope de Rueda (El Tomillar),36.73473,-4.478386,http://www.emtmalaga.es/emt-mobile/informacionParada.html?codParada=2162
2163,2163,Avda. Lope de Vega (Los Ramos),36.732495,-4.473585,http://www.emtmalaga.es/emt-mobile/informacionParada.html?codParada=2163
2164,2164,Avda. Lope de Vega (El Atabal),36.730914,-4.468935,http://www.emtmalaga.es/emt-mobile/informacionParada.html?codParada=2164
2165,2165,Universidad Laboral,36.729452,-4.466772,http://www.emtmalaga.es/emt-mobile/informacionParada.html?codParada=2165
2166,2166,Lope de Vega (Hacienda Cabello),36.727678,-4.464017,http://www.emtmalaga.es/emt-mobile/informacionParada.html?codParada=2166
2167,2167,Avda. Lope de Vega (Rosa Garcia),36.73282,-4.475343,http://www.emtmalaga.es/emt-mobile/informacionParada.html?codParada=2167
2168,2168,Alameda Principal (Norte),36.717301,-4.424114,http://www.emtmalaga.es/emt-mobile/informacionParada.html?codParada=2168
2201,2201,Avda. de Velázquez (Avda. Moliére),36.691253,-4.456351,http://www.emtmalaga.es/emt-mobile/informacionParada.html?codParada=2201
2202,2202,Isla Cristina,36.701283,-4.441879,http://www.emtmalaga.es/emt-mobile/informacionParada.html?codParada=2202
2203,2203,Isla Cristina (25 años de Paz),36.702513,-4.440466,http://www.emtmalaga.es/emt-mobile/informacionParada.html?codParada=2203
2204,2204,Palacio de Ferias,36.707356,-4.461906,http://www.emtmalaga.es/emt-mobile/informacionParada.html?codParada=2204
2206,2206,Louis Pasteur,36.716219,-4.474904,http://www.emtmalaga.es/emt-mobile/informacionParada.html?codParada=2206
2207,2207,Gregorio Prieto (Franz Kafka),36.716149,-4.463347,http://www.emtmalaga.es/emt-mobile/informacionParada.html?codParada=2207
2251,2251,Hospital Clínico,36.717698,-4.476207,http://www.emtmalaga.es/emt-mobile/informacionParada.html?codParada=2251
2253,2253,Facultad de  Filosofia y letras,36.716611,-4.47047,http://www.emtmalaga.es/emt-mobile/informacionParada.html?codParada=2253
2302,2302,Tamayo y Baus (El Atabal),36.72936,-4.467285,http://www.emtmalaga.es/emt-mobile/informacionParada.html?codParada=2302
2303,2303,Tamayo y Baus,36.727828,-4.467129,http://www.emtmalaga.es/emt-mobile/informacionParada.html?codParada=2303
2304,2304,Navarro Ledesma (La Palma),36.724426,-4.472544,http://www.emtmalaga.es/emt-mobile/informacionParada.html?codParada=2304
2305,2305,Navarro Ledesma (Altamira),36.724482,-4.480513,http://www.emtmalaga.es/emt-mobile/informacionParada.html?codParada=2305
2306,2306,Navarro Ledesma (El Cónsul),36.72391,-4.483266,http://www.emtmalaga.es/emt-mobile/informacionParada.html?codParada=2306
2307,2307,Navarro Ledesma (El Cónsul),36.722838,-4.486149,http://www.emtmalaga.es/emt-mobile/informacionParada.html?codParada=2307
2310,2310,Camino Colonia Sta Inés (Viviendas Prefabricadas),36.719706,-4.503189,http://www.emtmalaga.es/emt-mobile/informacionParada.html?codParada=2310
2311,2311,Camino Colonia Sta Inés (Los Asperones),36.719302,-4.507497,http://www.emtmalaga.es/emt-mobile/informacionParada.html?codParada=2311
2313,2313,Navarro Ledesma (Torre Atalaya),36.72442,-4.476788,http://www.emtmalaga.es/emt-mobile/informacionParada.html?codParada=2313
2315,2315,Avda. Lope de Vega (Julio Cortazar),36.730369,-4.467792,http://www.emtmalaga.es/emt-mobile/informacionParada.html?codParada=2315
2317,2317,Navarro Ledesma (Maria Barrientos),36.721902,-4.4888,http://www.emtmalaga.es/emt-mobile/informacionParada.html?codParada=2317
2318,2318,Senador Fernández Pelegrina,36.722212,-4.49231,http://www.emtmalaga.es/emt-mobile/informacionParada.html?codParada=2318
2319,2319,Escritor Antonio Soler (Cristobal Cuevas),36.723333,-4.493404,http://www.emtmalaga.es/emt-mobile/informacionParada.html?codParada=2319
2320,2320,Escritor Antonio Soler (Navarro Ledesma),36.721442,-4.495302,http://www.emtmalaga.es/emt-mobile/informacionParada.html?codParada=2320
2351,2351,Parque Cementerio,36.721216,-4.516397,http://www.emtmalaga.es/emt-mobile/informacionParada.html?codParada=2351
2353,2353,Camino Colonia Sta Inés (Los Asperones),36.719081,-4.50761,http://www.emtmalaga.es/emt-mobile/informacionParada.html?codParada=2353
2354,2354,Camino Colonia Sta Inés (Viviendas Prefabricadas),36.719654,-4.503006,http://www.emtmalaga.es/emt-mobile/informacionParada.html?codParada=2354
2357,2357,Navarro Ledesma (El Cónsul),36.722714,-4.486054,http://www.emtmalaga.es/emt-mobile/informacionParada.html?codParada=2357
2358,2358,Navarro Ledesma (El Cónsul),36.723803,-4.483072,http://www.emtmalaga.es/emt-mobile/informacionParada.html?codParada=2358
2359,2359,Navarro Ledesma (Altamira),36.72433,-4.479298,http://www.emtmalaga.es/emt-mobile/informacionParada.html?codParada=2359
2360,2360,Navarro Ledesma (La Palma),36.724273,-4.472532,http://www.emtmalaga.es/emt-mobile/informacionParada.html?codParada=2360
2361,2361,Tamayo y Baus,36.727812,-4.466914,http://www.emtmalaga.es/emt-mobile/informacionParada.html?codParada=2361
2362,2362,Navarro Ledesma (Torre Atalaya),36.724113,-4.475584,http://www.emtmalaga.es/emt-mobile/informacionParada.html?codParada=2362
2363,2363,Frances Bosca,36.726485,-4.468885,http://www.emtmalaga.es/emt-mobile/informacionParada.html?codParada=2363
2365,2365,Navarrro Ledesma (Maria Barrientos),36.72174,-4.488715,http://www.emtmalaga.es/emt-mobile/informacionParada.html?codParada=2365
2366,2366,Escritor Antonio Soler (Navarro Ledesma),36.721241,-4.494973,http://www.emtmalaga.es/emt-mobile/informacionParada.html?codParada=2366
2367,2367,Catedrático Cristobal Cuevas,36.723255,-4.492433,http://www.emtmalaga.es/emt-mobile/informacionParada.html?codParada=2367
2368,2368,Felix Gancedo,36.721458,-4.492049,http://www.emtmalaga.es/emt-mobile/informacionParada.html?codParada=2368
2401,2401,Avda. M. Agustín Heredia,36.715412,-4.422038,http://www.emtmalaga.es/emt-mobile/informacionParada.html?codParada=2401
2402,2402,Camino de San Rafael,36.711606,-4.441765,http://www.emtmalaga.es/emt-mobile/informacionParada.html?codParada=2402
2403,2403,Camino de San Rafael (Sta Julia),36.71013,-4.443929,http://www.emtmalaga.es/emt-mobile/informacionParada.html?codParada=2403
2404,2404,Camino de San Rafael (La Asunción),36.709174,-4.446095,http://www.emtmalaga.es/emt-mobile/informacionParada.html?codParada=2404
2405,2405,Camino de San Rafael (Sta. Isabel),36.707796,-4.448148,http://www.emtmalaga.es/emt-mobile/informacionParada.html?codParada=2405
2408,2408,Paquiro (Polígono La Estrella),36.700364,-4.464389,http://www.emtmalaga.es/emt-mobile/informacionParada.html?codParada=2408
2409,2409,Paquiro (C/ La Orotava),36.699237,-4.468217,http://www.emtmalaga.es/emt-mobile/informacionParada.html?codParada=2409
2410,2410,Camino de los Prados (Polígono San Luis),36.699077,-4.472049,http://www.emtmalaga.es/emt-mobile/informacionParada.html?codParada=2410
2411,2411,Bda. los Prados (Colegio),36.698993,-4.474845,http://www.emtmalaga.es/emt-mobile/informacionParada.html?codParada=2411
2413,2413,Cmno. San Rafael (Recinto Ferial),36.701798,-4.461123,http://www.emtmalaga.es/emt-mobile/informacionParada.html?codParada=2413
2414,2414,Cmno. San Rafael (EMT),36.704857,-4.453513,http://www.emtmalaga.es/emt-mobile/informacionParada.html?codParada=2414
2415,2415,Cmno. San Rafael (El Copo),36.704029,-4.455409,http://www.emtmalaga.es/emt-mobile/informacionParada.html?codParada=2415
2416,2416,Avda. Manuel Agustin Heredia (CARE),36.712458,-4.424902,http://www.emtmalaga.es/emt-mobile/informacionParada.html?codParada=2416
2417,2417,Paseo de los Tilos (Estación de Autobuses),36.71356,-4.433711,http://www.emtmalaga.es/emt-mobile/informacionParada.html?codParada=2417
2418,2418,Los Prados (Cofa),36.699138,-4.477764,http://www.emtmalaga.es/emt-mobile/informacionParada.html?codParada=2418
2451,2451,Bda. Los Prados (C/ Eslora),36.699221,-4.476946,http://www.emtmalaga.es/emt-mobile/informacionParada.html?codParada=2451
2452,2452,Bda. de los Prados (Colegio),36.698837,-4.474821,http://www.emtmalaga.es/emt-mobile/informacionParada.html?codParada=2452
2453,2453,Camino de los Prados (San Luis),36.698913,-4.472145,http://www.emtmalaga.es/emt-mobile/informacionParada.html?codParada=2453
2454,2454,Paquiro (Polígono La Estrella),36.699865,-4.46498,http://www.emtmalaga.es/emt-mobile/informacionParada.html?codParada=2454
2457,2457,Camino de San Rafael (Ceramistas),36.707335,-4.448564,http://www.emtmalaga.es/emt-mobile/informacionParada.html?codParada=2457
2458,2458,Camino de San Rafael (Colegio),36.709248,-4.44567,http://www.emtmalaga.es/emt-mobile/informacionParada.html?codParada=2458
2459,2459,La Unión (La Concepción),36.708878,-4.443509,http://www.emtmalaga.es/emt-mobile/informacionParada.html?codParada=2459
2460,2460,La Unión (Los Planetas),36.709954,-4.441397,http://www.emtmalaga.es/emt-mobile/informacionParada.html?codParada=2460
2461,2461,Camino de los Prados (Estación),36.698857,-4.476588,http://www.emtmalaga.es/emt-mobile/informacionParada.html?codParada=2461
2463,2463,Cmno. San Rafel (Recinto Ferial),36.701267,-4.461011,http://www.emtmalaga.es/emt-mobile/informacionParada.html?codParada=2463
2464,2464,Cmno. San Rafael (El Copo),36.703601,-4.455824,http://www.emtmalaga.es/emt-mobile/informacionParada.html?codParada=2464
2465,2465,Cmno. San Rafael (EMT),36.704877,-4.453011,http://www.emtmalaga.es/emt-mobile/informacionParada.html?codParada=2465
2466,2466,Ingeniero Garnica,36.709976,-4.42849,http://www.emtmalaga.es/emt-mobile/informacionParada.html?codParada=2466
2502,2502,Andrés Llorden,36.713757,-4.473734,http://www.emtmalaga.es/emt-mobile/informacionParada.html?codParada=2502
2503,2503,Duque de Ahumada,36.714207,-4.482029,http://www.emtmalaga.es/emt-mobile/informacionParada.html?codParada=2503
2504,2504,Centro de Transporte de Mercancías,36.712543,-4.512921,http://www.emtmalaga.es/emt-mobile/informacionParada.html?codParada=2504
2505,2505,Parque Cementerio,36.719717,-4.515562,http://www.emtmalaga.es/emt-mobile/informacionParada.html?codParada=2505
2506,2506,Los Asperones 2,36.718949,-4.524786,http://www.emtmalaga.es/emt-mobile/informacionParada.html?codParada=2506
2507,2507,Vallejo,36.719088,-4.531196,http://www.emtmalaga.es/emt-mobile/informacionParada.html?codParada=2507
2508,2508,Pilar del Prado,36.720718,-4.534915,http://www.emtmalaga.es/emt-mobile/informacionParada.html?codParada=2508
2509,2509,José Calderón (Centro de Salud),36.722972,-4.537547,http://www.emtmalaga.es/emt-mobile/informacionParada.html?codParada=2509
2510,2510,José Calderón (Instituto),36.724359,-4.539387,http://www.emtmalaga.es/emt-mobile/informacionParada.html?codParada=2510
2511,2511,José Calderón,36.725358,-4.540799,http://www.emtmalaga.es/emt-mobile/informacionParada.html?codParada=2511
2512,2512,José Calderón (Junta de Distrito),36.728237,-4.545156,http://www.emtmalaga.es/emt-mobile/informacionParada.html?codParada=2512
2513,2513,José Calderón (Instalaciones Deportivas),36.729252,-4.54711,http://www.emtmalaga.es/emt-mobile/informacionParada.html?codParada=2513
2515,2515,Escuela Agrícola,36.733153,-4.560468,http://www.emtmalaga.es/emt-mobile/informacionParada.html?codParada=2515
2516,2516,Maqueda,36.733114,-4.566125,http://www.emtmalaga.es/emt-mobile/informacionParada.html?codParada=2516
2517,2517,Miranda,36.732865,-4.568476,http://www.emtmalaga.es/emt-mobile/informacionParada.html?codParada=2517
2519,2519,Avda. Juan López Peñalver,36.731811,-4.550331,http://www.emtmalaga.es/emt-mobile/informacionParada.html?codParada=2519
2520,2520,Avda. Juan López Peñalver (Marie Curie),36.737213,-4.553313,http://www.emtmalaga.es/emt-mobile/informacionParada.html?codParada=2520
2522,2522,Severo Ochoa (Rotonda),36.738474,-4.554676,http://www.emtmalaga.es/emt-mobile/informacionParada.html?codParada=2522
2523,2523,Severo Ochoa,36.738495,-4.55747,http://www.emtmalaga.es/emt-mobile/informacionParada.html?codParada=2523
2524,2524,Severo Ochoa,36.735933,-4.556942,http://www.emtmalaga.es/emt-mobile/informacionParada.html?codParada=2524
2525,2525,Graham Bell,36.735243,-4.546858,http://www.emtmalaga.es/emt-mobile/informacionParada.html?codParada=2525
2526,2526,Maria Curie,36.737486,-4.550529,http://www.emtmalaga.es/emt-mobile/informacionParada.html?codParada=2526
2551,2551,Santa Rosalía (Loma del Campo),36.73399,-4.575691,http://www.emtmalaga.es/emt-mobile/informacionParada.html?codParada=2551
2552,2552,Sta. Rosalía (Ronda Norte),36.732954,-4.57213,http://www.emtmalaga.es/emt-mobile/informacionParada.html?codParada=2552
2553,2553,Sta. Rosalía (Maqueda),36.732742,-4.567123,http://www.emtmalaga.es/emt-mobile/informacionParada.html?codParada=2553
2554,2554,Escuela Agrícola,36.733039,-4.560522,http://www.emtmalaga.es/emt-mobile/informacionParada.html?codParada=2554
2556,2556,José Calderón (Instalaciones Deportivas),36.729067,-4.546984,http://www.emtmalaga.es/emt-mobile/informacionParada.html?codParada=2556
2557,2557,José Calderón (Junta de Distrito),36.727663,-4.544454,http://www.emtmalaga.es/emt-mobile/informacionParada.html?codParada=2557
2558,2558,José Calderón,36.726403,-4.542487,http://www.emtmalaga.es/emt-mobile/informacionParada.html?codParada=2558
2559,2559,José Calderón (Instituto),36.724309,-4.539512,http://www.emtmalaga.es/emt-mobile/informacionParada.html?codParada=2559
2560,2560,José Calderón (Centro de Salud),36.722981,-4.537721,http://www.emtmalaga.es/emt-mobile/informacionParada.html?codParada=2560
2561,2561,Pilar del Prado,36.720734,-4.53513,http://www.emtmalaga.es/emt-mobile/informacionParada.html?codParada=2561
2562,2562,Vallejo.,36.718918,-4.531173,http://www.emtmalaga.es/emt-mobile/informacionParada.html?codParada=2562
2563,2563,Los Asperones 2,36.718848,-4.524776,http://www.emtmalaga.es/emt-mobile/informacionParada.html?codParada=2563
2564,2564,Parque Cementerio,36.719623,-4.515568,http://www.emtmalaga.es/emt-mobile/informacionParada.html?codParada=2564
2565,2565,Centro de Transporte de Mercancías,36.712544,-4.512866,http://www.emtmalaga.es/emt-mobile/informacionParada.html?codParada=2565
2566,2566,Duque de Ahumada,36.713879,-4.482022,http://www.emtmalaga.es/emt-mobile/informacionParada.html?codParada=2566
2567,2567,Andrés Llordén,36.713376,-4.473876,http://www.emtmalaga.es/emt-mobile/informacionParada.html?codParada=2567
2569,2569,Avda. Juan López Peñalver (Marie Curie),36.73645,-4.553098,http://www.emtmalaga.es/emt-mobile/informacionParada.html?codParada=2569
2571,2571,Sta. Rosalía (Miranda),36.73252,-4.568805,http://www.emtmalaga.es/emt-mobile/informacionParada.html?codParada=2571
2572,2572,Severo Ochoa,36.7362,-4.556687,http://www.emtmalaga.es/emt-mobile/informacionParada.html?codParada=2572
2573,2573,Severo Ochoa,36.738637,-4.55747,http://www.emtmalaga.es/emt-mobile/informacionParada.html?codParada=2573
2574,2574,Severo Ochoa (Rotonda),36.738386,-4.554589,http://www.emtmalaga.es/emt-mobile/informacionParada.html?codParada=2574
2575,2575,Avda. Juan Lopez Peñalver,36.731797,-4.550554,http://www.emtmalaga.es/emt-mobile/informacionParada.html?codParada=2575
2580,2580,Andalucia Tech,36.719735,-4.495146,http://www.emtmalaga.es/emt-mobile/informacionParada.html?codParada=2580
2581,2581,Severo Ochoa (Lopez Peñalver),36.736404,-4.553498,http://www.emtmalaga.es/emt-mobile/informacionParada.html?codParada=2581
2603,2603,Rosario Pino (Cruz Roja),36.730761,-4.42477,http://www.emtmalaga.es/emt-mobile/informacionParada.html?codParada=2603
2604,2604,Rosario Pino,36.732643,-4.423979,http://www.emtmalaga.es/emt-mobile/informacionParada.html?codParada=2604
2605,2605,Lorenza Correa,36.738887,-4.422761,http://www.emtmalaga.es/emt-mobile/informacionParada.html?codParada=2605
2606,2606,María Tubau,36.740614,-4.422605,http://www.emtmalaga.es/emt-mobile/informacionParada.html?codParada=2606
2607,2607,Emilio Thuillier (La Fuente),36.743003,-4.422231,http://www.emtmalaga.es/emt-mobile/informacionParada.html?codParada=2607
2608,2608,Emilio Thuillier,36.744891,-4.421923,http://www.emtmalaga.es/emt-mobile/informacionParada.html?codParada=2608
2609,2609,Jerez Perchet (Emilio Thuiller),36.74589,-4.421331,http://www.emtmalaga.es/emt-mobile/informacionParada.html?codParada=2609
2610,2610,Jerez Perchet (Los Casinis),36.744598,-4.418581,http://www.emtmalaga.es/emt-mobile/informacionParada.html?codParada=2610
2612,2612,Jerez Perchet (Cortijo Bazán),36.745928,-4.417679,http://www.emtmalaga.es/emt-mobile/informacionParada.html?codParada=2612
2613,2613,Málaga Oloroso,36.745366,-4.415524,http://www.emtmalaga.es/emt-mobile/informacionParada.html?codParada=2613
2614,2614,Lagrima,36.745652,-4.414592,http://www.emtmalaga.es/emt-mobile/informacionParada.html?codParada=2614
2615,2615,Lagrima (Arroyo Quintana),36.746284,-4.416338,http://www.emtmalaga.es/emt-mobile/informacionParada.html?codParada=2615
2617,2617,Jardín de Málaga,36.749878,-4.416841,http://www.emtmalaga.es/emt-mobile/informacionParada.html?codParada=2617
2618,2618,Marques de Mantua,36.750278,-4.417927,http://www.emtmalaga.es/emt-mobile/informacionParada.html?codParada=2618
2619,2619,Vial de Conexión,36.75173,-4.418634,http://www.emtmalaga.es/emt-mobile/informacionParada.html?codParada=2619
2620,2620,Mariano Benlliure,36.75046,-4.419665,http://www.emtmalaga.es/emt-mobile/informacionParada.html?codParada=2620
2621,2621,Sancho de Miranda,36.748262,-4.419123,http://www.emtmalaga.es/emt-mobile/informacionParada.html?codParada=2621
2622,2622,Pasaje A. Nicolás Maroto,36.748888,-4.420137,http://www.emtmalaga.es/emt-mobile/informacionParada.html?codParada=2622
2626,2626,Hacienda Los Montes,36.748012,-4.41758,http://www.emtmalaga.es/emt-mobile/informacionParada.html?codParada=2626
2627,2627,San Juan Bosco (Las Flores),36.735448,-4.422783,http://www.emtmalaga.es/emt-mobile/informacionParada.html?codParada=2627
2651,2651,Alegría de la Huerta,36.751309,-4.419941,http://www.emtmalaga.es/emt-mobile/informacionParada.html?codParada=2651
2652,2652,Quintanar de la Orden,36.751378,-4.421899,http://www.emtmalaga.es/emt-mobile/informacionParada.html?codParada=2652
2654,2654,Pedro Romero,36.750522,-4.422499,http://www.emtmalaga.es/emt-mobile/informacionParada.html?codParada=2654
2655,2655,Emilio Thuiller (Jardín de Málaga),36.748878,-4.421859,http://www.emtmalaga.es/emt-mobile/informacionParada.html?codParada=2655
2657,2657,Alcalde Nicolás Maroto,36.749184,-4.418174,http://www.emtmalaga.es/emt-mobile/informacionParada.html?codParada=2657
2667,2667,Emilio Thuiller,36.744731,-4.422083,http://www.emtmalaga.es/emt-mobile/informacionParada.html?codParada=2667
2668,2668,Emilio Thuiller (La Fuente),36.742731,-4.422407,http://www.emtmalaga.es/emt-mobile/informacionParada.html?codParada=2668
2669,2669,María Tubau,36.740335,-4.422772,http://www.emtmalaga.es/emt-mobile/informacionParada.html?codParada=2669
2670,2670,Lorenza Correa,36.738659,-4.422906,http://www.emtmalaga.es/emt-mobile/informacionParada.html?codParada=2670
2671,2671,Fray Domingo Pimentel,36.732965,-4.424616,http://www.emtmalaga.es/emt-mobile/informacionParada.html?codParada=2671
2701,2701,Avda. M. Agustín Heredia,36.715082,-4.4224,http://www.emtmalaga.es/emt-mobile/informacionParada.html?codParada=2701
2702,2702,Avda. Virgen de Belén,36.693933,-4.454822,http://www.emtmalaga.es/emt-mobile/informacionParada.html?codParada=2702
2704,2704,Herman Hesse,36.69083,-4.466778,http://www.emtmalaga.es/emt-mobile/informacionParada.html?codParada=2704
2705,2705,Gerald Brenan (Hermanas Bronte),36.688758,-4.472241,http://www.emtmalaga.es/emt-mobile/informacionParada.html?codParada=2705
2706,2706,Gerald Brenan,36.691332,-4.477985,http://www.emtmalaga.es/emt-mobile/informacionParada.html?codParada=2706
2707,2707,Cesar Vallejo (Pista de Tráfico),36.693642,-4.482404,http://www.emtmalaga.es/emt-mobile/informacionParada.html?codParada=2707
2708,2708,Carlo Goldoni,36.697411,-4.488201,http://www.emtmalaga.es/emt-mobile/informacionParada.html?codParada=2708
2711,2711,Av Isaac Peral (Leo Delibes),36.693389,-4.458783,http://www.emtmalaga.es/emt-mobile/informacionParada.html?codParada=2711
2712,2712,Horacio Quiroga (Parque Mª Luisa),36.695753,-4.458884,http://www.emtmalaga.es/emt-mobile/informacionParada.html?codParada=2712
2750,2750,Sta. Teresa,36.697439,-4.495083,http://www.emtmalaga.es/emt-mobile/informacionParada.html?codParada=2750
2752,2752,Cesar Vallejo,36.6957,-4.490434,http://www.emtmalaga.es/emt-mobile/informacionParada.html?codParada=2752
2753,2753,Cesar Vallejo (Pista de Tráfico),36.693993,-4.483175,http://www.emtmalaga.es/emt-mobile/informacionParada.html?codParada=2753
2754,2754,Salazar Chapela,36.692948,-4.477239,http://www.emtmalaga.es/emt-mobile/informacionParada.html?codParada=2754
2757,2757,Polígono Santa Bárbara,36.694797,-4.46083,http://www.emtmalaga.es/emt-mobile/informacionParada.html?codParada=2757
2758,2758,Horacio Quiroga (Parque Mª Luisa),36.695956,-4.458837,http://www.emtmalaga.es/emt-mobile/informacionParada.html?codParada=2758
2759,2759,Avda. Isaac Peral,36.693841,-4.457985,http://www.emtmalaga.es/emt-mobile/informacionParada.html?codParada=2759
2760,2760,Avda. Virgen de Belén,36.69395,-4.455308,http://www.emtmalaga.es/emt-mobile/informacionParada.html?codParada=2760
2761,2761,Hermanas Bronte (Esteban Salazar Chapela),36.691153,-4.470825,http://www.emtmalaga.es/emt-mobile/informacionParada.html?codParada=2761
2762,2762,Herman Hesse,36.692868,-4.465361,http://www.emtmalaga.es/emt-mobile/informacionParada.html?codParada=2762
2801,2801,Rotonda de Santa Águeda,36.704193,-4.545436,http://www.emtmalaga.es/emt-mobile/informacionParada.html?codParada=2801
2802,2802,Portales de la Victoria,36.706236,-4.544544,http://www.emtmalaga.es/emt-mobile/informacionParada.html?codParada=2802
2803,2803,Castañetas,36.70813,-4.548813,http://www.emtmalaga.es/emt-mobile/informacionParada.html?codParada=2803
2804,2804,Castañetas (Campo de Fútbol),36.710721,-4.548739,http://www.emtmalaga.es/emt-mobile/informacionParada.html?codParada=2804
2805,2805,Las Manceras (C/ Niel),36.718813,-4.548333,http://www.emtmalaga.es/emt-mobile/informacionParada.html?codParada=2805
2806,2806,Las Manceras,36.721256,-4.548156,http://www.emtmalaga.es/emt-mobile/informacionParada.html?codParada=2806
2807,2807,Jacob (El Roquero),36.725913,-4.549111,http://www.emtmalaga.es/emt-mobile/informacionParada.html?codParada=2807
2809,2809,Huertecilla de Mañas,36.725948,-4.533743,http://www.emtmalaga.es/emt-mobile/informacionParada.html?codParada=2809
2810,2810,Huertecilla de Mañas (C/ Bauxita),36.727653,-4.534277,http://www.emtmalaga.es/emt-mobile/informacionParada.html?codParada=2810
2811,2811,Colmenarejo,36.732967,-4.532035,http://www.emtmalaga.es/emt-mobile/informacionParada.html?codParada=2811
2812,2812,Fresneda (Somera),36.741041,-4.538982,http://www.emtmalaga.es/emt-mobile/informacionParada.html?codParada=2812
2813,2813,Fresneda (Betania),36.754333,-4.531832,http://www.emtmalaga.es/emt-mobile/informacionParada.html?codParada=2813
2814,2814,Casillas del Carpintero,36.765675,-4.520745,http://www.emtmalaga.es/emt-mobile/informacionParada.html?codParada=2814
2815,2815,Ventorrillo de las Cruces,36.772131,-4.512941,http://www.emtmalaga.es/emt-mobile/informacionParada.html?codParada=2815
2816,2816,Pasaje Viola,36.723423,-4.548892,http://www.emtmalaga.es/emt-mobile/informacionParada.html?codParada=2816
2817,2817,Pilar del Prado (Oliveros),36.721043,-4.534117,http://www.emtmalaga.es/emt-mobile/informacionParada.html?codParada=2817
2818,2818,Colmenarejo (C/ Ágata),36.734435,-4.531763,http://www.emtmalaga.es/emt-mobile/informacionParada.html?codParada=2818
2819,2819,Camino del Rayo (La Caraña),36.738228,-4.53354,http://www.emtmalaga.es/emt-mobile/informacionParada.html?codParada=2819
2820,2820,El Rayo,36.737631,-4.538281,http://www.emtmalaga.es/emt-mobile/informacionParada.html?codParada=2820
2821,2821,Somera,36.744504,-4.537795,http://www.emtmalaga.es/emt-mobile/informacionParada.html?codParada=2821
2822,2822,Fresneda (Los Florido),36.752007,-4.533225,http://www.emtmalaga.es/emt-mobile/informacionParada.html?codParada=2822
2823,2823,La Ventolera,36.75572,-4.530825,http://www.emtmalaga.es/emt-mobile/informacionParada.html?codParada=2823
2824,2824,La Perla,36.760548,-4.526091,http://www.emtmalaga.es/emt-mobile/informacionParada.html?codParada=2824
2825,2825,Fresneda (La Perla),36.763222,-4.52391,http://www.emtmalaga.es/emt-mobile/informacionParada.html?codParada=2825
2826,2826,Carril de Olmedo (Los Curritos),36.766536,-4.518715,http://www.emtmalaga.es/emt-mobile/informacionParada.html?codParada=2826
2827,2827,Jacob,36.728144,-4.548899,http://www.emtmalaga.es/emt-mobile/informacionParada.html?codParada=2827
2828,2828,Bratislava,36.722649,-4.543492,http://www.emtmalaga.es/emt-mobile/informacionParada.html?codParada=2828
2829,2829,Praga,36.723552,-4.545553,http://www.emtmalaga.es/emt-mobile/informacionParada.html?codParada=2829
2851,2851,Bda. Los Nuñez,36.780029,-4.515763,http://www.emtmalaga.es/emt-mobile/informacionParada.html?codParada=2851
2852,2852,Ventorrillo de las Cruces,36.771931,-4.513559,http://www.emtmalaga.es/emt-mobile/informacionParada.html?codParada=2852
2853,2853,Casillas del Carpintero,36.76572,-4.520907,http://www.emtmalaga.es/emt-mobile/informacionParada.html?codParada=2853
2854,2854,Fresneda (Betania),36.754632,-4.531742,http://www.emtmalaga.es/emt-mobile/informacionParada.html?codParada=2854
2855,2855,Fresneda (Somera),36.741045,-4.539088,http://www.emtmalaga.es/emt-mobile/informacionParada.html?codParada=2855
2856,2856,Colmenarejo,36.732548,-4.534247,http://www.emtmalaga.es/emt-mobile/informacionParada.html?codParada=2856
2857,2857,Huertecilla de Mañas (C/ Bauxita),36.727698,-4.534495,http://www.emtmalaga.es/emt-mobile/informacionParada.html?codParada=2857
2858,2858,Huertecilla de Mañas,36.725877,-4.533873,http://www.emtmalaga.es/emt-mobile/informacionParada.html?codParada=2858
2859,2859,Pilar del Prado (Oliveros),36.720891,-4.533862,http://www.emtmalaga.es/emt-mobile/informacionParada.html?codParada=2859
2860,2860,Jacob,36.728179,-4.549031,http://www.emtmalaga.es/emt-mobile/informacionParada.html?codParada=2860
2861,2861,Las Manceras,36.721225,-4.548286,http://www.emtmalaga.es/emt-mobile/informacionParada.html?codParada=2861
2862,2862,Las Manceras (C/ Niel),36.718688,-4.548441,http://www.emtmalaga.es/emt-mobile/informacionParada.html?codParada=2862
2863,2863,Castañetas (Campo de Fútbol),36.710793,-4.548893,http://www.emtmalaga.es/emt-mobile/informacionParada.html?codParada=2863
2864,2864,Castañetas,36.708204,-4.548884,http://www.emtmalaga.es/emt-mobile/informacionParada.html?codParada=2864
2865,2865,Portales de la Victoria,36.706154,-4.544558,http://www.emtmalaga.es/emt-mobile/informacionParada.html?codParada=2865
2866,2866,Carril de Olmedo (Los Curritos),36.766454,-4.519,http://www.emtmalaga.es/emt-mobile/informacionParada.html?codParada=2866
2867,2867,Fresneda (La Perla),36.763262,-4.524003,http://www.emtmalaga.es/emt-mobile/informacionParada.html?codParada=2867
2868,2868,La Perla,36.760645,-4.526118,http://www.emtmalaga.es/emt-mobile/informacionParada.html?codParada=2868
2869,2869,La Ventolera,36.755732,-4.530969,http://www.emtmalaga.es/emt-mobile/informacionParada.html?codParada=2869
2870,2870,Fresneda (Los Florido),36.752363,-4.533108,http://www.emtmalaga.es/emt-mobile/informacionParada.html?codParada=2870
2871,2871,Somera,36.744478,-4.53791,http://www.emtmalaga.es/emt-mobile/informacionParada.html?codParada=2871
2872,2872,El Rayo,36.737482,-4.537968,http://www.emtmalaga.es/emt-mobile/informacionParada.html?codParada=2872
2873,2873,Camino del Rayo (La Caraña),36.73826,-4.533318,http://www.emtmalaga.es/emt-mobile/informacionParada.html?codParada=2873
2874,2874,Colmenarejo (C/ Ágata),36.7345,-4.53187,http://www.emtmalaga.es/emt-mobile/informacionParada.html?codParada=2874
2876,2876,Pasaje Viola,36.722997,-4.549052,http://www.emtmalaga.es/emt-mobile/informacionParada.html?codParada=2876
2877,2877,Jacob (El Roquero),36.726002,-4.549183,http://www.emtmalaga.es/emt-mobile/informacionParada.html?codParada=2877
2878,2878,Bratislava,36.72269,-4.543605,http://www.emtmalaga.es/emt-mobile/informacionParada.html?codParada=2878
2879,2879,Praga,36.723494,-4.545947,http://www.emtmalaga.es/emt-mobile/informacionParada.html?codParada=2879
2901,2901,Jarazmín,36.7274,-4.335785,http://www.emtmalaga.es/emt-mobile/informacionParada.html?codParada=2901
2902,2902,Camino de Jarazmín,36.724654,-4.336598,http://www.emtmalaga.es/emt-mobile/informacionParada.html?codParada=2902
2903,2903,Camino de Jarazmín,36.723997,-4.336687,http://www.emtmalaga.es/emt-mobile/informacionParada.html?codParada=2903
2904,2904,Camino Viejo de Vélez,36.72158,-4.340117,http://www.emtmalaga.es/emt-mobile/informacionParada.html?codParada=2904
2905,2905,Camino Viejo de Vélez,36.722026,-4.342048,http://www.emtmalaga.es/emt-mobile/informacionParada.html?codParada=2905
2906,2906,Camino Viejo de Vélez (Instituto),36.72249,-4.345118,http://www.emtmalaga.es/emt-mobile/informacionParada.html?codParada=2906
2907,2907,Carretera de Olías (Fuente),36.723858,-4.345694,http://www.emtmalaga.es/emt-mobile/informacionParada.html?codParada=2907
2909,2909,Carretera de Olías (Podadera),36.727263,-4.343124,http://www.emtmalaga.es/emt-mobile/informacionParada.html?codParada=2909
2910,2910,Carretera de Olías (Ventas),36.730219,-4.339882,http://www.emtmalaga.es/emt-mobile/informacionParada.html?codParada=2910
2913,2913,Villafuerte,36.724323,-4.359008,http://www.emtmalaga.es/emt-mobile/informacionParada.html?codParada=2913
2914,2914,Reina Fabiola (Colegio),36.727737,-4.35637,http://www.emtmalaga.es/emt-mobile/informacionParada.html?codParada=2914
2915,2915,Reina Fabiola (Subestación),36.727563,-4.357624,http://www.emtmalaga.es/emt-mobile/informacionParada.html?codParada=2915
2916,2916,Reina Fabiola,36.727181,-4.362507,http://www.emtmalaga.es/emt-mobile/informacionParada.html?codParada=2916
2917,2917,Avda. San Isidro,36.727092,-4.364602,http://www.emtmalaga.es/emt-mobile/informacionParada.html?codParada=2917
2921,2921,Cmno. Viejo de Velez (Ctra. Olias),36.722127,-4.347334,http://www.emtmalaga.es/emt-mobile/informacionParada.html?codParada=2921
2923,2923,Fernandez Shaw (Juan Sebastian Elcano),36.722579,-4.373843,http://www.emtmalaga.es/emt-mobile/informacionParada.html?codParada=2923
2924,2924,Cesar Riario,36.721941,-4.376981,http://www.emtmalaga.es/emt-mobile/informacionParada.html?codParada=2924
2925,2925,Manuel del Palacio (Arroyo Jaboneros),36.725503,-4.366607,http://www.emtmalaga.es/emt-mobile/informacionParada.html?codParada=2925
2926,2926,Algarrobo,36.721492,-4.350888,http://www.emtmalaga.es/emt-mobile/informacionParada.html?codParada=2926
2927,2927,Algarrobo (Potosi),36.722594,-4.35067,http://www.emtmalaga.es/emt-mobile/informacionParada.html?codParada=2927
2928,2928,Carmen Amaya,36.725164,-4.35156,http://www.emtmalaga.es/emt-mobile/informacionParada.html?codParada=2928
2929,2929,Idumea,36.722132,-4.35295,http://www.emtmalaga.es/emt-mobile/informacionParada.html?codParada=2929
2930,2930,Villafuerte (J. S. Elcano),36.721684,-4.359967,http://www.emtmalaga.es/emt-mobile/informacionParada.html?codParada=2930
2931,2931,Laurel,36.728153,-4.374348,http://www.emtmalaga.es/emt-mobile/informacionParada.html?codParada=2931
2932,2932,José Fernández Pertierra,36.731127,-4.375384,http://www.emtmalaga.es/emt-mobile/informacionParada.html?codParada=2932
2933,2933,Pintor Sánchez Cotán,36.732529,-4.376489,http://www.emtmalaga.es/emt-mobile/informacionParada.html?codParada=2933
2934,2934,Juan García León,36.729806,-4.376958,http://www.emtmalaga.es/emt-mobile/informacionParada.html?codParada=2934
2935,2935,Laurel,36.728075,-4.374449,http://www.emtmalaga.es/emt-mobile/informacionParada.html?codParada=2935
2936,2936,Arquitecto Francisco de Mora,36.725863,-4.374854,http://www.emtmalaga.es/emt-mobile/informacionParada.html?codParada=2936
2937,2937,Carretera de Olías (El Palo),36.721973,-4.348291,http://www.emtmalaga.es/emt-mobile/informacionParada.html?codParada=2937
2953,2953,Camino de San Antón,36.725531,-4.365169,http://www.emtmalaga.es/emt-mobile/informacionParada.html?codParada=2953
2960,2960,Carretera de Olías (Candado),36.721855,-4.348088,http://www.emtmalaga.es/emt-mobile/informacionParada.html?codParada=2960
2964,2964,Camino Viejo de Vélez (Instituto),36.722491,-4.344899,http://www.emtmalaga.es/emt-mobile/informacionParada.html?codParada=2964
2965,2965,Camino Viejo de Vélez,36.721488,-4.340151,http://www.emtmalaga.es/emt-mobile/informacionParada.html?codParada=2965
2966,2966,Camino de Jarazmín,36.723862,-4.336558,http://www.emtmalaga.es/emt-mobile/informacionParada.html?codParada=2966
2967,2967,Camino de Jarazmín,36.724989,-4.336569,http://www.emtmalaga.es/emt-mobile/informacionParada.html?codParada=2967
2968,2968,Camino Viejo de Vélez,36.721945,-4.341912,http://www.emtmalaga.es/emt-mobile/informacionParada.html?codParada=2968
2969,2969,José María Alonso (Pablo Sarasate),36.730111,-4.358123,http://www.emtmalaga.es/emt-mobile/informacionParada.html?codParada=2969
2970,2970,José María Alonso (Residencia),36.731308,-4.359443,http://www.emtmalaga.es/emt-mobile/informacionParada.html?codParada=2970
2971,2971,José María Alonso (Francisco Rabal),36.732248,-4.356965,http://www.emtmalaga.es/emt-mobile/informacionParada.html?codParada=2971
2972,2972,Leoni Banabu,36.733438,-4.356086,http://www.emtmalaga.es/emt-mobile/informacionParada.html?codParada=2972
2973,2973,Leoni Banabu (Camilo José Cela),36.734138,-4.357436,http://www.emtmalaga.es/emt-mobile/informacionParada.html?codParada=2973
2974,2974,Magnolios (Adolfo Marsillach),36.733337,-4.360037,http://www.emtmalaga.es/emt-mobile/informacionParada.html?codParada=2974
2975,2975,Magnolios (Tulipanes),36.733866,-4.361345,http://www.emtmalaga.es/emt-mobile/informacionParada.html?codParada=2975
2976,2976,Avda. San Antón (Cedros),36.73505,-4.361423,http://www.emtmalaga.es/emt-mobile/informacionParada.html?codParada=2976
2977,2977,Avda. San Antón (Almendros),36.731418,-4.361623,http://www.emtmalaga.es/emt-mobile/informacionParada.html?codParada=2977
2978,2978,Arquitecto Alonso Carrbonell,36.726887,-4.374203,http://www.emtmalaga.es/emt-mobile/informacionParada.html?codParada=2978
3001,3001,Atarazanas,36.717948,-4.424331,http://www.emtmalaga.es/emt-mobile/informacionParada.html?codParada=3001
3002,3002,Donato Jiménez,36.739469,-4.421203,http://www.emtmalaga.es/emt-mobile/informacionParada.html?codParada=3002
3003,3003,Manuel Laguna,36.739737,-4.418733,http://www.emtmalaga.es/emt-mobile/informacionParada.html?codParada=3003
3004,3004,Manuel Laguna (Solitario),36.7405,-4.417639,http://www.emtmalaga.es/emt-mobile/informacionParada.html?codParada=3004
3006,3006,Francisco Lopez (Arroyo Aceiteros),36.744094,-4.414667,http://www.emtmalaga.es/emt-mobile/informacionParada.html?codParada=3006
3051,3051,Morritos Altos,36.742231,-4.416372,http://www.emtmalaga.es/emt-mobile/informacionParada.html?codParada=3051
3052,3052,Francisco López López,36.743082,-4.41702,http://www.emtmalaga.es/emt-mobile/informacionParada.html?codParada=3052
3053,3053,Las Yucas,36.742152,-4.418744,http://www.emtmalaga.es/emt-mobile/informacionParada.html?codParada=3053
3054,3054,Los Ficus,36.743526,-4.419488,http://www.emtmalaga.es/emt-mobile/informacionParada.html?codParada=3054
3055,3055,Aguacates,36.742599,-4.421108,http://www.emtmalaga.es/emt-mobile/informacionParada.html?codParada=3055
3103,3103,Hilera (Telefónica),36.71941,-4.432179,http://www.emtmalaga.es/emt-mobile/informacionParada.html?codParada=3103
3104,3104,Hilera (Santa Elena),36.71927,-4.435131,http://www.emtmalaga.es/emt-mobile/informacionParada.html?codParada=3104
3105,3105,Avda. Herrera Oria (Puente),36.718345,-4.439154,http://www.emtmalaga.es/emt-mobile/informacionParada.html?codParada=3105
3111,3111,Avda. Herrera Oria (Polideportivo),36.719093,-4.44831,http://www.emtmalaga.es/emt-mobile/informacionParada.html?codParada=3111
3115,3115,Villanueva de Algaidas (Instituto),36.686452,-4.455468,http://www.emtmalaga.es/emt-mobile/informacionParada.html?codParada=3115
3116,3116,Montejaque,36.686199,-4.458048,http://www.emtmalaga.es/emt-mobile/informacionParada.html?codParada=3116
3117,3117,Palacio de los Deportes,36.684928,-4.458049,http://www.emtmalaga.es/emt-mobile/informacionParada.html?codParada=3117
3118,3118,Av. Moliere (Av. Velázquez),36.690025,-4.456363,http://www.emtmalaga.es/emt-mobile/informacionParada.html?codParada=3118
3120,3120,Av. Moliere (Camino del Pato),36.687141,-4.453308,http://www.emtmalaga.es/emt-mobile/informacionParada.html?codParada=3120
3121,3121,Almogía (Nicolas Isidro),36.715064,-4.453847,http://www.emtmalaga.es/emt-mobile/informacionParada.html?codParada=3121
3123,3123,Hilera (Armengual de la Mota),36.717981,-4.428542,http://www.emtmalaga.es/emt-mobile/informacionParada.html?codParada=3123
3151,3151,Villanueva del Rosario (Mainake),36.686646,-4.457379,http://www.emtmalaga.es/emt-mobile/informacionParada.html?codParada=3151
3152,3152,Villanueva de Algaidas (Instituto),36.686311,-4.455466,http://www.emtmalaga.es/emt-mobile/informacionParada.html?codParada=3152
3159,3159,Avda. Herrera Oria,36.718338,-4.441375,http://www.emtmalaga.es/emt-mobile/informacionParada.html?codParada=3159
3160,3160,Avda. Herrera Oria (Puente),36.718114,-4.438836,http://www.emtmalaga.es/emt-mobile/informacionParada.html?codParada=3160
3161,3161,Avda. de la Aurora (Ministerios),36.715993,-4.437179,http://www.emtmalaga.es/emt-mobile/informacionParada.html?codParada=3161
3164,3164,Av. Moliere (Camino del Pato),36.687473,-4.453195,http://www.emtmalaga.es/emt-mobile/informacionParada.html?codParada=3164
3165,3165,Av. Moliere (Avda. Velazquez),36.689925,-4.45581,http://www.emtmalaga.es/emt-mobile/informacionParada.html?codParada=3165
3168,3168,Corregidor Nicolas Isidro,36.715269,-4.451351,http://www.emtmalaga.es/emt-mobile/informacionParada.html?codParada=3168
3202,3202,Paseo Miramar (San Vicente Paúl),36.725549,-4.396961,http://www.emtmalaga.es/emt-mobile/informacionParada.html?codParada=3202
3203,3203,Paseo Miramar (Santa Paula),36.726461,-4.396775,http://www.emtmalaga.es/emt-mobile/informacionParada.html?codParada=3203
3204,3204,Paseo de Miramar (Goethe),36.727995,-4.396474,http://www.emtmalaga.es/emt-mobile/informacionParada.html?codParada=3204
3205,3205,Avda. Mayorazgo (Hacienda Miramar),36.729971,-4.396123,http://www.emtmalaga.es/emt-mobile/informacionParada.html?codParada=3205
3206,3206,Avda. Mayorazgo,36.73148,-4.397035,http://www.emtmalaga.es/emt-mobile/informacionParada.html?codParada=3206
3207,3207,Paseo Miramar,36.723765,-4.396793,http://www.emtmalaga.es/emt-mobile/informacionParada.html?codParada=3207
3208,3208,Avda. Aurora,36.715767,-4.428159,http://www.emtmalaga.es/emt-mobile/informacionParada.html?codParada=3208
3251,3251,El Mayorazgo (Avda. de las Caballerizas),36.73208,-4.397945,http://www.emtmalaga.es/emt-mobile/informacionParada.html?codParada=3251
3252,3252,Avda. de las Caballerizas,36.729604,-4.397415,http://www.emtmalaga.es/emt-mobile/informacionParada.html?codParada=3252
3253,3253,La Espuela,36.729916,-4.399386,http://www.emtmalaga.es/emt-mobile/informacionParada.html?codParada=3253
3254,3254,La Espuela (Instituto),36.732795,-4.400426,http://www.emtmalaga.es/emt-mobile/informacionParada.html?codParada=3254
3255,3255,Era,36.73356,-4.401842,http://www.emtmalaga.es/emt-mobile/informacionParada.html?codParada=3255
3256,3256,Sierra de Grazalema (Pinos del Limonar),36.732153,-4.403292,http://www.emtmalaga.es/emt-mobile/informacionParada.html?codParada=3256
3257,3257,Sierra de Grazalema (Sierra del Co),36.729229,-4.402785,http://www.emtmalaga.es/emt-mobile/informacionParada.html?codParada=3257
3258,3258,Sierra de Grazalema,36.726811,-4.402488,http://www.emtmalaga.es/emt-mobile/informacionParada.html?codParada=3258
3259,3259,Carril de Castell,36.725565,-4.400032,http://www.emtmalaga.es/emt-mobile/informacionParada.html?codParada=3259
3261,3261,Paseo del Limonar (Colegio),36.724885,-4.398732,http://www.emtmalaga.es/emt-mobile/informacionParada.html?codParada=3261
3262,3262,Paseo del Limonar,36.722997,-4.398773,http://www.emtmalaga.es/emt-mobile/informacionParada.html?codParada=3262
3264,3264,Alameda Principal (Norte),36.717072,-4.42496,http://www.emtmalaga.es/emt-mobile/informacionParada.html?codParada=3264
3302,3302,Paseo Cerrado Calderón (C. Comercial),36.726154,-4.381547,http://www.emtmalaga.es/emt-mobile/informacionParada.html?codParada=3302
3303,3303,Flamencos,36.726545,-4.383464,http://www.emtmalaga.es/emt-mobile/informacionParada.html?codParada=3303
3304,3304,Flamencos (Colegio),36.727028,-4.384187,http://www.emtmalaga.es/emt-mobile/informacionParada.html?codParada=3304
3305,3305,Flamencos (Liceo Francés),36.729267,-4.383468,http://www.emtmalaga.es/emt-mobile/informacionParada.html?codParada=3305
3306,3306,Flamencos (Conejera),36.730584,-4.385723,http://www.emtmalaga.es/emt-mobile/informacionParada.html?codParada=3306
3313,3313,Matagallo,36.736515,-4.385033,http://www.emtmalaga.es/emt-mobile/informacionParada.html?codParada=3313
3314,3314,Olmos,36.733081,-4.382162,http://www.emtmalaga.es/emt-mobile/informacionParada.html?codParada=3314
3315,3315,Flamencos (Arce),36.73246,-4.385215,http://www.emtmalaga.es/emt-mobile/informacionParada.html?codParada=3315
3316,3316,Matagallo (Meridiana),36.734643,-4.384331,http://www.emtmalaga.es/emt-mobile/informacionParada.html?codParada=3316
3318,3318,Matagallo (Macizo Central),36.738784,-4.383274,http://www.emtmalaga.es/emt-mobile/informacionParada.html?codParada=3318
3319,3319,La Cerrajera,36.739701,-4.381676,http://www.emtmalaga.es/emt-mobile/informacionParada.html?codParada=3319
3320,3320,La Cerrajera (Rotonda),36.738075,-4.379393,http://www.emtmalaga.es/emt-mobile/informacionParada.html?codParada=3320
3321,3321,Olmos (Campanario),36.734479,-4.381908,http://www.emtmalaga.es/emt-mobile/informacionParada.html?codParada=3321
3323,3323,Olmos (Interpares),36.731606,-4.381576,http://www.emtmalaga.es/emt-mobile/informacionParada.html?codParada=3323
3324,3324,Paseo del Parque (Plaza de la Marina),36.718577,-4.418903,http://www.emtmalaga.es/emt-mobile/informacionParada.html?codParada=3324
3325,3325,Olmos (Pimienta),36.729552,-4.381507,http://www.emtmalaga.es/emt-mobile/informacionParada.html?codParada=3325
3326,3326,Olmos (Cueva Pileta),36.727454,-4.382254,http://www.emtmalaga.es/emt-mobile/informacionParada.html?codParada=3326
3327,3327,Av. Juan Sebastian Elcano (Cerrado Calderón),36.72202,-4.382579,http://www.emtmalaga.es/emt-mobile/informacionParada.html?codParada=3327
3328,3328,Avda. Aurora,36.715776,-4.428324,http://www.emtmalaga.es/emt-mobile/informacionParada.html?codParada=3328
3351,3351,La Unidad (Cerrado Calderón),36.72607,-4.380821,http://www.emtmalaga.es/emt-mobile/informacionParada.html?codParada=3351
3352,3352,Juan Valera (Pepita Jiménez),36.724974,-4.379426,http://www.emtmalaga.es/emt-mobile/informacionParada.html?codParada=3352
3353,3353,Juan Valera,36.723997,-4.377925,http://www.emtmalaga.es/emt-mobile/informacionParada.html?codParada=3353
3354,3354,Juan Valera,36.723964,-4.376532,http://www.emtmalaga.es/emt-mobile/informacionParada.html?codParada=3354
3355,3355,Juan Valera (Costa Rica),36.723572,-4.37813,http://www.emtmalaga.es/emt-mobile/informacionParada.html?codParada=3355
3356,3356,Juan Valera,36.723186,-4.377266,http://www.emtmalaga.es/emt-mobile/informacionParada.html?codParada=3356
3402,3402,Ángel Guimerá,36.721317,-4.371679,http://www.emtmalaga.es/emt-mobile/informacionParada.html?codParada=3402
3403,3403,Ricardo León,36.723062,-4.37171,http://www.emtmalaga.es/emt-mobile/informacionParada.html?codParada=3403
3404,3404,Gabriel y Galán (Ricardo León),36.724462,-4.371494,http://www.emtmalaga.es/emt-mobile/informacionParada.html?codParada=3404
3405,3405,Gabriel y Galán (Amador de los Ríos),36.72444,-4.369533,http://www.emtmalaga.es/emt-mobile/informacionParada.html?codParada=3405
3406,3406,Gabriel y Galán (Octavio Picón),36.724455,-4.368037,http://www.emtmalaga.es/emt-mobile/informacionParada.html?codParada=3406
3408,3408,Amador de los Ríos (San Federico),36.726772,-4.369489,http://www.emtmalaga.es/emt-mobile/informacionParada.html?codParada=3408
3409,3409,Amador de los Ríos (Eucaliptus),36.727462,-4.370549,http://www.emtmalaga.es/emt-mobile/informacionParada.html?codParada=3409
3410,3410,Eucaliptos (Bda. La Mosca),36.729821,-4.370906,http://www.emtmalaga.es/emt-mobile/informacionParada.html?codParada=3410
3411,3411,Eucaliptos (Viaducto),36.731238,-4.370976,http://www.emtmalaga.es/emt-mobile/informacionParada.html?codParada=3411
3412,3412,Escritor Manuel Solano (Méndez Sotomayor),36.73369,-4.372043,http://www.emtmalaga.es/emt-mobile/informacionParada.html?codParada=3412
3413,3413,Escritor Manuel Solano (Escritor Fco. José Fernádez),36.735945,-4.373688,http://www.emtmalaga.es/emt-mobile/informacionParada.html?codParada=3413
3414,3414,Molinillo Hundido,36.724462,-4.366429,http://www.emtmalaga.es/emt-mobile/informacionParada.html?codParada=3414
3415,3415,Manuel de Palacio (Octavio Picón),36.725497,-4.368191,http://www.emtmalaga.es/emt-mobile/informacionParada.html?codParada=3415
3451,3451,Escritor Manuel Solano (El Chorrillo),36.737555,-4.374358,http://www.emtmalaga.es/emt-mobile/informacionParada.html?codParada=3451
3452,3452,Escritor Manuel Solano (Escritor Fco. José Fernádez),36.736017,-4.373744,http://www.emtmalaga.es/emt-mobile/informacionParada.html?codParada=3452
3453,3453,Escritor Manuel Solano (Méndez Sotomayor),36.733839,-4.372257,http://www.emtmalaga.es/emt-mobile/informacionParada.html?codParada=3453
3454,3454,Eucaliptos (Viaducto),36.731156,-4.371057,http://www.emtmalaga.es/emt-mobile/informacionParada.html?codParada=3454
3455,3455,Eucaliptos (Bda. La Mosca),36.729822,-4.370983,http://www.emtmalaga.es/emt-mobile/informacionParada.html?codParada=3455
3457,3457,Amador de los Ríos (Eucaliptus),36.727409,-4.370671,http://www.emtmalaga.es/emt-mobile/informacionParada.html?codParada=3457
3458,3458,Amador de los Ríos (Manuel del Palacio),36.725093,-4.36937,http://www.emtmalaga.es/emt-mobile/informacionParada.html?codParada=3458
3502,3502,Paseo de Salvador Rueda (Limonar),36.723841,-4.399436,http://www.emtmalaga.es/emt-mobile/informacionParada.html?codParada=3502
3503,3503,Paseo de Salvador Rueda (Pinillo),36.725104,-4.401673,http://www.emtmalaga.es/emt-mobile/informacionParada.html?codParada=3503
3504,3504,Paseo de Salvador Rueda (Enlace),36.725596,-4.403896,http://www.emtmalaga.es/emt-mobile/informacionParada.html?codParada=3504
3505,3505,Paseo de Salvador Rueda (Ventaja Alta),36.727004,-4.405627,http://www.emtmalaga.es/emt-mobile/informacionParada.html?codParada=3505
3506,3506,Paseo de Calvo Sotelo (Ventajilla),36.7259,-4.406063,http://www.emtmalaga.es/emt-mobile/informacionParada.html?codParada=3506
3507,3507,Camino de Gibralfaro,36.724906,-4.405123,http://www.emtmalaga.es/emt-mobile/informacionParada.html?codParada=3507
3508,3508,Camino de Gibralfaro (Parador Nacional),36.723299,-4.408823,http://www.emtmalaga.es/emt-mobile/informacionParada.html?codParada=3508
3551,3551,Camino de Gibralfaro (Castillo),36.723319,-4.410165,http://www.emtmalaga.es/emt-mobile/informacionParada.html?codParada=3551
3552,3552,Camino de Gibralfaro (Parador Nacional),36.723441,-4.408685,http://www.emtmalaga.es/emt-mobile/informacionParada.html?codParada=3552
3553,3553,Camino de Gibralfaro,36.724424,-4.405815,http://www.emtmalaga.es/emt-mobile/informacionParada.html?codParada=3553
3554,3554,Paseo de Calvo Sotelo (Ventajilla),36.725841,-4.405967,http://www.emtmalaga.es/emt-mobile/informacionParada.html?codParada=3554
3555,3555,Paseo de Salvador Rueda (Ventaja Alta),36.726253,-4.405204,http://www.emtmalaga.es/emt-mobile/informacionParada.html?codParada=3555
3556,3556,Paseo de Salvador Rueda (Enlace),36.725518,-4.403902,http://www.emtmalaga.es/emt-mobile/informacionParada.html?codParada=3556
3557,3557,Paseo de Salvador Rueda (Pinillo),36.725044,-4.401509,http://www.emtmalaga.es/emt-mobile/informacionParada.html?codParada=3557
3558,3558,Paseo de Salvador Rueda (Limonar),36.724039,-4.399669,http://www.emtmalaga.es/emt-mobile/informacionParada.html?codParada=3558
3602,3602,Córdoba,36.716548,-4.422043,http://www.emtmalaga.es/emt-mobile/informacionParada.html?codParada=3602
3608,3608,Plaza Francisco Silvela,36.728559,-4.411619,http://www.emtmalaga.es/emt-mobile/informacionParada.html?codParada=3608
3609,3609,Conde Ureña,36.729713,-4.410283,http://www.emtmalaga.es/emt-mobile/informacionParada.html?codParada=3609
3610,3610,Conde Ureña,36.728438,-4.41062,http://www.emtmalaga.es/emt-mobile/informacionParada.html?codParada=3610
3615,3615,Barcenillas,36.726954,-4.412393,http://www.emtmalaga.es/emt-mobile/informacionParada.html?codParada=3615
3616,3616,Pinos,36.726096,-4.412731,http://www.emtmalaga.es/emt-mobile/informacionParada.html?codParada=3616
3617,3617,Pinosol,36.726013,-4.411083,http://www.emtmalaga.es/emt-mobile/informacionParada.html?codParada=3617
3618,3618,Pinosol,36.726787,-4.410707,http://www.emtmalaga.es/emt-mobile/informacionParada.html?codParada=3618
3619,3619,Barcenillas,36.726977,-4.412286,http://www.emtmalaga.es/emt-mobile/informacionParada.html?codParada=3619
3651,3651,Conde Ureña,36.729325,-4.409447,http://www.emtmalaga.es/emt-mobile/informacionParada.html?codParada=3651
3652,3652,Conde Ureña,36.728415,-4.410236,http://www.emtmalaga.es/emt-mobile/informacionParada.html?codParada=3652
3653,3653,Conde Ureña,36.729803,-4.410511,http://www.emtmalaga.es/emt-mobile/informacionParada.html?codParada=3653
3654,3654,Plaza Francisco Silvela,36.728298,-4.411964,http://www.emtmalaga.es/emt-mobile/informacionParada.html?codParada=3654
3655,3655,San Patricio,36.728689,-4.41397,http://www.emtmalaga.es/emt-mobile/informacionParada.html?codParada=3655
3703,3703,Camino de los Almendrales (Seminario),36.734627,-4.412385,http://www.emtmalaga.es/emt-mobile/informacionParada.html?codParada=3703
3704,3704,Camino de los Almendrales (Bloque Viviendas),36.734562,-4.408491,http://www.emtmalaga.es/emt-mobile/informacionParada.html?codParada=3704
3705,3705,Camino de los Almendrales (Sierra Blanquilla),36.735053,-4.406333,http://www.emtmalaga.es/emt-mobile/informacionParada.html?codParada=3705
3707,3707,Camino de los Almendrales (Seminario),36.734792,-4.412463,http://www.emtmalaga.es/emt-mobile/informacionParada.html?codParada=3707
3709,3709,Olletas (Camino del Colmenar),36.735119,-4.414911,http://www.emtmalaga.es/emt-mobile/informacionParada.html?codParada=3709
3712,3712,Camino Colmenar (Los Antonios),36.736423,-4.413061,http://www.emtmalaga.es/emt-mobile/informacionParada.html?codParada=3712
3713,3713,Cuesta Tasara,36.73859,-4.412463,http://www.emtmalaga.es/emt-mobile/informacionParada.html?codParada=3713
3714,3714,Plaza de  Olletas,36.733867,-4.415734,http://www.emtmalaga.es/emt-mobile/informacionParada.html?codParada=3714
3715,3715,Plaza Maestro Artola,36.729423,-4.418165,http://www.emtmalaga.es/emt-mobile/informacionParada.html?codParada=3715
3716,3716,Camino de los Almendrales (Bloque Viviendas),36.734967,-4.409171,http://www.emtmalaga.es/emt-mobile/informacionParada.html?codParada=3716
3721,3721,Olletas (Camino del Colmenar),36.734952,-4.415494,http://www.emtmalaga.es/emt-mobile/informacionParada.html?codParada=3721
3722,3722,Avda. Aurora,36.715784,-4.428477,http://www.emtmalaga.es/emt-mobile/informacionParada.html?codParada=3722
3751,3751,Camino de Colmenar (Monte Dorado),36.741702,-4.412207,http://www.emtmalaga.es/emt-mobile/informacionParada.html?codParada=3751
3752,3752,Cuesta Tasara,36.738244,-4.412672,http://www.emtmalaga.es/emt-mobile/informacionParada.html?codParada=3752
3753,3753,Camino Colmenar (Los Antonios),36.736661,-4.412814,http://www.emtmalaga.es/emt-mobile/informacionParada.html?codParada=3753
3755,3755,Escritor Antonio Ramos (Colegio),36.736912,-4.415287,http://www.emtmalaga.es/emt-mobile/informacionParada.html?codParada=3755
3756,3756,Escritor Antonio Ramos,36.737638,-4.417531,http://www.emtmalaga.es/emt-mobile/informacionParada.html?codParada=3756
3757,3757,Avda. Manuel Gorría (Rotonda),36.73677,-4.418036,http://www.emtmalaga.es/emt-mobile/informacionParada.html?codParada=3757
3758,3758,Avda. Manuel Gorría,36.736272,-4.416637,http://www.emtmalaga.es/emt-mobile/informacionParada.html?codParada=3758
3759,3759,Camino de Colmenar (Olletas),36.734697,-4.41601,http://www.emtmalaga.es/emt-mobile/informacionParada.html?codParada=3759
3762,3762,Plaza del Maestro Artola,36.729482,-4.418381,http://www.emtmalaga.es/emt-mobile/informacionParada.html?codParada=3762
3763,3763,Tejeros,36.728975,-4.414716,http://www.emtmalaga.es/emt-mobile/informacionParada.html?codParada=3763
3764,3764,Avda. Manuel Gorria,36.736595,-4.417054,http://www.emtmalaga.es/emt-mobile/informacionParada.html?codParada=3764
3765,3765,Escritor Antonio Ramos (Avda. Pascueros),36.737519,-4.41787,http://www.emtmalaga.es/emt-mobile/informacionParada.html?codParada=3765
3766,3766,Escritor Antonio Ramos (Colegio),36.736791,-4.41569,http://www.emtmalaga.es/emt-mobile/informacionParada.html?codParada=3766
3901,3901,Paseo de los Curas,36.71889,-4.415654,http://www.emtmalaga.es/emt-mobile/informacionParada.html?codParada=3901
3902,3902,Pso. Antonio Machado (Ingeniero Garnica),36.708831,-4.428587,http://www.emtmalaga.es/emt-mobile/informacionParada.html?codParada=3902
3903,3903,Pso. Antonio Machado (Tomas Echeverria),36.702522,-4.433741,http://www.emtmalaga.es/emt-mobile/informacionParada.html?codParada=3903
3904,3904,Pacifico (Princesa),36.699786,-4.436651,http://www.emtmalaga.es/emt-mobile/informacionParada.html?codParada=3904
3905,3905,Pacifico (Carril de la Chupa),36.693644,-4.441024,http://www.emtmalaga.es/emt-mobile/informacionParada.html?codParada=3905
3906,3906,Pacifico (Diputacion),36.689974,-4.443157,http://www.emtmalaga.es/emt-mobile/informacionParada.html?codParada=3906
3907,3907,Pacifico (Moliere),36.683834,-4.446811,http://www.emtmalaga.es/emt-mobile/informacionParada.html?codParada=3907
3951,3951,Pacifico (Sacaba Beach),36.680786,-4.448069,http://www.emtmalaga.es/emt-mobile/informacionParada.html?codParada=3951
3952,3952,Pacifico (Moliere),36.684564,-4.445822,http://www.emtmalaga.es/emt-mobile/informacionParada.html?codParada=3952
3953,3953,Pacifico (Diputacion),36.688693,-4.443404,http://www.emtmalaga.es/emt-mobile/informacionParada.html?codParada=3953
3954,3954,Pacifico (Carril de la Chupa),36.693603,-4.440566,http://www.emtmalaga.es/emt-mobile/informacionParada.html?codParada=3954
3955,3955,Pacifico (Princesa),36.699646,-4.436222,http://www.emtmalaga.es/emt-mobile/informacionParada.html?codParada=3955
3956,3956,Pso. Antonio Machado (Tomas Echeverria),36.702443,-4.433371,http://www.emtmalaga.es/emt-mobile/informacionParada.html?codParada=3956
3957,3957,Pso. Antonio Machado (Ingeniero Garnica),36.70866,-4.428282,http://www.emtmalaga.es/emt-mobile/informacionParada.html?codParada=3957
3958,3958,Paseo de los Curas,36.718806,-4.415168,http://www.emtmalaga.es/emt-mobile/informacionParada.html?codParada=3958
3959,3959,Plaza de la Marina,36.717032,-4.420151,http://www.emtmalaga.es/emt-mobile/informacionParada.html?codParada=3959
4202,4202,Blas de Lezo,36.728148,-4.434747,http://www.emtmalaga.es/emt-mobile/informacionParada.html?codParada=4202
4203,4203,Avda. Valle Inclán,36.736511,-4.433626,http://www.emtmalaga.es/emt-mobile/informacionParada.html?codParada=4203
4402,4402,Mesonero Romanos,36.720529,-4.46014,http://www.emtmalaga.es/emt-mobile/informacionParada.html?codParada=4402
4406,4406,Pierrot (Cortijo Alto),36.711995,-4.462718,http://www.emtmalaga.es/emt-mobile/informacionParada.html?codParada=4406
4407,4407,Av. Jorge L. Borges (José Ribera),36.720593,-4.471151,http://www.emtmalaga.es/emt-mobile/informacionParada.html?codParada=4407
4445,4445,Av. Plutarco (Eolo),36.720897,-4.475457,http://www.emtmalaga.es/emt-mobile/informacionParada.html?codParada=4445
4451,4451,Avda. Diego Fernandez de Mendoza,36.721699,-4.469607,http://www.emtmalaga.es/emt-mobile/informacionParada.html?codParada=4451
4452,4452,Avda. Jorge Luis Borges (Gregorio Prieto),36.719845,-4.463143,http://www.emtmalaga.es/emt-mobile/informacionParada.html?codParada=4452
4454,4454,Pierrot (Cortijo Alto),36.711975,-4.462718,http://www.emtmalaga.es/emt-mobile/informacionParada.html?codParada=4454
4455,4455,Av. Jorge L. Borges (José Ribera),36.720356,-4.471178,http://www.emtmalaga.es/emt-mobile/informacionParada.html?codParada=4455
6202,6202,Aristofanes,36.721925,-4.482612,http://www.emtmalaga.es/emt-mobile/informacionParada.html?codParada=6202
6204,6204,Avda. Pintor Manuel Barbadillo,36.727044,-4.471866,http://www.emtmalaga.es/emt-mobile/informacionParada.html?codParada=6204
6252,6252,Aristofanes,36.721992,-4.482423,http://www.emtmalaga.es/emt-mobile/informacionParada.html?codParada=6252
6254,6254,Av Pintor Manuel Barbadillo,36.727039,-4.471619,http://www.emtmalaga.es/emt-mobile/informacionParada.html?codParada=6254
6501,6501,Ingenierías,36.716177,-4.49392,http://www.emtmalaga.es/emt-mobile/informacionParada.html?codParada=6501
6502,6502,Louis Pasteur (Informatica),36.715826,-4.476169,http://www.emtmalaga.es/emt-mobile/informacionParada.html?codParada=6502
6503,6503,Louis Pasteur (Complejo Deportivo),36.716528,-4.481305,http://www.emtmalaga.es/emt-mobile/informacionParada.html?codParada=6503
6551,6551,Ingenierías,36.716033,-4.493927,http://www.emtmalaga.es/emt-mobile/informacionParada.html?codParada=6551
6552,6552,Ciencias de la Salud,36.715316,-4.500041,http://www.emtmalaga.es/emt-mobile/informacionParada.html?codParada=6552
6553,6553,Louis Pasteur (Complejo Deportivo),36.716248,-4.480106,http://www.emtmalaga.es/emt-mobile/informacionParada.html?codParada=6553
7301,7301,San Vicente Paul,36.724875,-4.396116,http://www.emtmalaga.es/emt-mobile/informacionParada.html?codParada=7301
7302,7302,Miguel Indurain (Marcos Obregon),36.724689,-4.393041,http://www.emtmalaga.es/emt-mobile/informacionParada.html?codParada=7302
7303,7303,Miguel Indurain (Sibelius),36.726133,-4.391499,http://www.emtmalaga.es/emt-mobile/informacionParada.html?codParada=7303
7304,7304,Manuel Seco (F. Fellini),36.72813,-4.389406,http://www.emtmalaga.es/emt-mobile/informacionParada.html?codParada=7304
7305,7305,Manuel Seco (Antonio Mata),36.731223,-4.39144,http://www.emtmalaga.es/emt-mobile/informacionParada.html?codParada=7305
7306,7306,Mayoral,36.732596,-4.394263,http://www.emtmalaga.es/emt-mobile/informacionParada.html?codParada=7306
7307,7307,Limonar (Goethe),36.727937,-4.398396,http://www.emtmalaga.es/emt-mobile/informacionParada.html?codParada=7307
7308,7308,Limonar (Ramos Carrion),36.726679,-4.398556,http://www.emtmalaga.es/emt-mobile/informacionParada.html?codParada=7308
7309,7309,Manuel Seco (J. M. Amado),36.729984,-4.38968,http://www.emtmalaga.es/emt-mobile/informacionParada.html?codParada=7309
